"Event"	"Reference (Event)"	"ID (Site)"	"ID (Dataset)"	"Site"	"Longitude"	"Latitude"	"Continent"	"modern training sites [#], full dataset"	"minimum modern T air (July) [°C], full dataset"	"maximum modern T air (July) [°C], full dataset"	"minimum modern T air (annual mean) [°C], full dataset"	"maximum modern T air (annual mean) [°C], full dataset"	"minimum modern Precip annual total [mm/a], full dataset"	"maximum modern Precip annual total [mm/a], full dataset"	"WA-PLS component T air (July), full dataset"	"WA-PLS r2 observed vs. predicted T air (July), full dataset"	"WA-PLS RMSEP T air (July), full dataset"	"MAT r2 observed vs. predicted T air (July), full dataset"	"MAT RMSEP T air (July), full dataset"	"WA-PLS component T air (annual mean), full dataset"	"WA-PLS r2 observed vs. predicted T air (annual mean), full dataset"	"WA-PLS RMSEP T air (annual mean), full dataset"	"MAT r2 observed vs. predicted T air (annual mean), full dataset"	"MAT RMSEP T air (annual mean), full dataset"	"WA-PLS component Precip annual total, full dataset"	"WA-PLS r2 observed vs. predicted Precip annual total, full dataset"	"WA-PLS RMSEP Precip annual total, full dataset"	"MAT r2 observed vs. predicted Precip annual total, full dataset"	"MAT RMSEP Precip annual total, full dataset"	"minimum modern T air (July) [°C], after tailoring"	"maximum modern T air (July) [°C], after tailoring"	"minimum modern T air (annual mean) [°C], after tailoring"	"maximum modern T air (annual mean) [°C], after tailoring"	"minimum modern Precip annual total [mm/a], after tailoring"	"maximum modern Precip annual total [mm/a], after tailoring"	"modern training sites [#], July temperature-tailored dataset"	"minimum modern T air (July) [°C], July temperature-tailored dataset"	"maximum modern T air (July) [°C], July temperature-tailored dataset"	"minimum modern Precip annual total [mm/a], July temperature-tailored dataset"	"maximum modern Precip annual total [mm/a], July temperature-tailored dataset"	"WA-PLS component T air (July), July temperature-tailored dataset"	"WA-PLS r2 observed vs. predicted T air (July), July temperature-tailored dataset"	"WA-PLS RMSEP T air (July), July temperature-tailored dataset"	"WA-PLS component Precip annual total, July temperature-tailored dataset"	"WA-PLS r2 observed vs. predicted Precip annual total, July temperature-tailored dataset"	"WA-PLS RMSEP Precip annual total, July temperature-tailored dataset"	"modern training sites [#], annual mean temperature-tailored dataset"	"minimum modern T air (annual mean) [°C], annual mean temperature-tailored dataset"	"maximum modern T air (annual mean) [°C], annual mean temperature-tailored dataset"	"minimum modern Precip annual total [mm/a], annual mean temperature-tailored dataset"	"maximum modern Precip annual total [mm/a], annual mean temperature-tailored dataset"	"WA-PLS component T air (annual mean), annual mean temperature-tailored dataset"	"WA-PLS r2 observed vs. predicted T air (annual mean), annual mean temperature-tailored dataset"	"WA-PLS RMSEP T air (annual mean), annual mean temperature-tailored dataset"	"WA-PLS component Precip annual total, annual mean temperature-tailored dataset"	"WA-PLS r2 observed vs. predicted Precip annual total, annual mean temperature-tailored dataset"	"WA-PLS RMSEP Precip annual total, annual mean temperature-tailored dataset"	"modern training sites [#], annual precipitation-tailored dataset"	"minimum modern T air (July) [°C], annual precipitation-tailored dataset"	"maximum modern T air (July) [°C], annual precipitation-tailored dataset"	"minimum modern T air (annual mean) [°C], annual precipitation-tailored dataset"	"maximum modern T air (annual mean) [°C], annual precipitation-tailored dataset"	"minimum modern Precip annual total [mm/a], annual precipitation-tailored dataset"	"maximum modern Precip annual total [mm/a], annual precipitation-tailored dataset"	"WA-PLS component T air (July), annual precipitation-tailored dataset"	"WA-PLS r2 observed vs. predicted T air (July), annual precipitation-tailored dataset"	"WA-PLS RMSEP T air (July), annual precipitation-tailored dataset"	"WA-PLS component T air (annual mean), annual precipitation-tailored dataset"	"WA-PLS r2 observed vs. predicted T air (annual mean), annual precipitation-tailored dataset"	"WA-PLS RMSEP T air (annual mean), annual precipitation-tailored dataset"	"WA-PLS component Precip annual total, annual precipitation-tailored dataset"	"WA-PLS r2 observed vs. predicted Precip annual total, annual precipitation-tailored dataset"	"WA-PLS RMSEP Precip annual total, annual precipitation-tailored dataset"
"ADANGE"	"Neotoma"	9	9	"Adange"	41.333333	43.305556	"Europe"	1560	8.6	33.9	-2.4	23.1	51	2121	2	0.47	2.9	0.69	2.24	2	0.71	2.66	0.83	2.07	1	0.4	165.35	0.66	125.41	10.3	20.4	1	10.3	594	989	913	10.4	20.3	346	1511	1	0.33	1.47	2	0.45	97.6	961	1.1	10.2	114	1511	2	0.62	1.49	1	0.46	108.25	761	8.6	30.8	-2.4	19.6	596	985	2	0.55	2.21	2	0.75	2.15	1	0.35	69.9
"AGE_neotoma"	"Neotoma"	12	12	"Agerods Mosse"	13.42774	55.934475	"Europe"	3047	4.4	25.9	-3.4	17	210	3625	2	0.57	2.45	0.78	1.76	2	0.7	2.25	0.84	1.66	1	0.29	323.43	0.73	200.15	10.2	21.9	-2.4	12.9	386	1292	2587	10.3	21.9	315	3625	2	0.49	1.71	1	0.28	331.91	2876	-2.4	12.9	315	3625	2	0.67	2.08	1	0.3	322.78	2573	4.4	25.9	-3.4	17	387	1292	2	0.57	2.43	2	0.73	2.2	1	0.33	169.95
"AHL5"	"Neotoma"	16	16	"Ahlenmoor"	8.729075	53.693998	"Europe"	3415	4.4	26.2	-3.4	17.6	210	3625	2	0.66	2.54	0.83	1.78	2	0.73	2.3	0.86	1.66	2	0.37	309.18	0.73	204.38	11.5	21.4	5.8	11.7	652	1650	2455	11.5	21.3	349	3625	2	0.45	1.49	1	0.27	335.85	1583	5.8	11.6	389	3568	1	0.3	1.22	1	0.31	318.52	2015	5.9	25.9	-2.6	16.9	652	1649	2	0.56	2.45	2	0.64	2.31	2	0.35	217.41
"AKUV"	"Neotoma"	20	20	"Akuvaara"	27.67406	69.12326	"Europe"	1585	3.5	20	-11.3	8.9	244	3625	2	0.68	1.74	0.8	1.4	2	0.69	2.36	0.76	2.07	2	0.4	287.66	0.72	194.5	6.1	17.5	-5.9	3.3	320	859	1356	6.1	17.4	270	3625	2	0.64	1.68	2	0.41	304.2	796	-5.9	3.3	380	2935	2	0.47	1.59	2	0.36	186.42	1318	3.5	20	-9.2	8.9	346	858	2	0.66	1.56	2	0.7	2.33	1	0.28	83.45
"AMTKEL"	"Neotoma"	200	200	"Amtkel"	41.308333	43.268056	"Europe"	1559	8.6	33.9	-2.4	23.1	51	2121	2	0.47	2.9	0.69	2.25	2	0.71	2.66	0.83	2.07	1	0.4	165.39	0.65	125.45	13.4	22.3	3.7	12.9	664	853	1107	13.4	22.2	234	1293	2	0.51	1.38	1	0.32	108.62	958	3.7	12.9	114	1293	1	0.68	1.52	1	0.42	97.74	366	10.2	30.8	-1.3	16.7	664	852	2	0.66	1.98	2	0.79	1.85	1	0.29	35.96
"ARTSLOUG"	"Neotoma"	214	215	"Arts Lough"	-6.433333	52.95	"Europe"	2671	4.4	26.7	-3.4	18.2	210	3625	2	0.72	2.53	0.85	1.84	2	0.72	2.44	0.85	1.79	2	0.43	317.92	0.73	219.56	10.5	18.3	0.6	11.2	934	1635	1566	10.5	18.3	499	3625	2	0.47	1.46	1	0.22	367.78	1855	0.6	11.2	407	3625	2	0.53	1.74	1	0.24	355.86	1007	5.9	24.4	-2.5	15.8	935	1634	2	0.58	2.3	2	0.64	2.34	2	0.31	166.7
"BALLIN"	"Neotoma"	223	225	"Ballinloghig Lake"	-10.308333	52.2	"Europe"	2496	4.4	26.7	-3.4	18.2	213	3625	2	0.73	2.54	0.86	1.87	2	0.72	2.47	0.85	1.82	2	0.44	321.25	0.73	223.86	9	17.7	1	11.1	304	2054	1483	9	17.7	528	3625	2	0.49	1.66	1	0.2	367.93	1687	1	11	407	3625	2	0.53	1.75	1	0.23	361.85	2435	4.4	26.7	-3.4	18	304	2033	2	0.73	2.55	2	0.72	2.44	2	0.49	267.07
"BALLYBET"	"Neotoma"	224	226	"Ballybetagh"	-6.25	53.166667	"Europe"	2688	4.4	26.7	-3.4	18.2	210	3625	2	0.72	2.53	0.85	1.83	2	0.72	2.43	0.85	1.78	2	0.43	317.85	0.73	219.38	5.4	17.4	-2.9	8.2	546	1638	1606	5.9	17.4	528	3625	2	0.53	2.02	1	0.19	358.6	1363	-2.6	8.2	485	3625	2	0.62	1.86	1	0.27	357.99	2054	4.4	26.5	-3.4	18	547	1634	2	0.62	2.4	2	0.66	2.36	2	0.37	227.73
"BRUVAT"	"Neotoma"	310	317	"Bruvatnet [Rovvejavri]"	28.407205	70.18109	"Europe"	1496	0.4	19.7	-16.3	8.7	210	3625	2	0.69	1.72	0.78	1.44	2	0.67	2.35	0.73	2.15	2	0.4	292.44	0.72	199.85	8.5	17	-6	3.4	-146	1025	1078	8.6	17	271	3625	2	0.6	1.35	2	0.45	318.73	798	-5.9	3.4	380	2935	2	0.47	1.61	2	0.36	186.49	1362	0.4	19.7	-16.3	8.7	210	1023	2	0.69	1.75	2	0.67	2.36	1	0.26	125.5
"CARNINO"	"Neotoma"	335	342	"Selle di Carnino"	7.694444	44.15	"Europe"	2993	4.4	26.7	-3.4	18.2	210	3625	2	0.69	2.67	0.83	1.95	2	0.69	2.51	0.83	1.85	2	0.42	308.36	0.74	206.37	9.2	24.3	2	12.9	-100	1974	2440	9.3	24.3	210	3625	2	0.55	2.26	1	0.27	340.27	2098	2	12.9	315	3625	2	0.5	1.72	1	0.28	347.78	2958	4.4	26.7	-3.4	18.2	210	1943	2	0.68	2.68	2	0.68	2.52	2	0.48	258.86
"CHERNIH"	"Neotoma"	355	363	"Chernikhovo"	26.433333	53.416667	"Europe"	3279	4.4	29.5	-3.4	17.6	143	3625	2	0.58	2.57	0.78	1.88	2	0.71	2.27	0.83	1.73	1	0.28	306.61	0.73	187.98	15.3	21	0.6	8.6	298	839	1826	15.4	20.9	381	1842	2	0.37	1.05	1	0.35	199.85	2015	0.6	8.6	173	3625	2	0.58	1.48	1	0.37	320.71	2143	4.4	29.5	-3.4	17.6	314	838	2	0.64	2.06	2	0.8	1.96	1	0.26	88.65
"CHIVRES"	"Neotoma"	363	374	"Le Marais St Boetien"	3.816667	49.616667	"Europe"	3082	4.4	26.7	-3.4	18.2	210	3625	2	0.69	2.61	0.84	1.88	2	0.71	2.44	0.84	1.8	2	0.4	312.32	0.73	209.37	8.6	21.1	0.1	12.8	743	1204	2248	8.6	21.1	389	3625	2	0.48	1.93	1	0.23	345.54	2353	0.1	12.8	315	3625	2	0.56	1.91	1	0.25	346.91	1154	5.9	25.9	-2.6	16.8	743	1203	2	0.63	2.54	2	0.7	2.43	1	0.16	116.53
"CS-4"	"Neotoma"	516	530	"Voros-mocsar"	19.190833	46.477222	"Europe"	3173	4.4	30.8	-3.4	19.6	210	3625	2	0.61	2.75	0.78	2.04	2	0.69	2.36	0.82	1.8	2	0.33	305.65	0.72	196.8	1.6	24	-7.4	13	-34	1767	2903	4.4	23.9	210	3625	2	0.54	2.53	1	0.24	321.44	2766	-3.4	13	315	3625	2	0.61	2.12	1	0.27	320.22	3108	4.4	30.8	-3.4	19.6	210	1762	2	0.6	2.77	2	0.69	2.38	2	0.4	236.92
"CTAR"	"Neotoma"	517	531	"Starniki"	26.016667	50.266667	"Europe"	3084	4.4	32.7	-3.4	19.6	143	3625	2	0.56	2.79	0.74	2.14	2	0.68	2.4	0.81	1.88	1	0.26	312.52	0.72	192.52	13.5	20.7	1	8.4	432	957	2015	13.5	20.6	381	3568	2	0.37	1.18	1	0.33	268.47	1773	1	8.4	173	3625	2	0.55	1.4	1	0.38	328.59	2119	4.4	30.8	-3.4	19.6	432	956	2	0.56	2.29	2	0.73	2.1	1	0.25	101.45
"DOMSV_neotoma"	"Neotoma"	700	720	"Domsvatnet"	31.025865	70.325835	"Europe"	1557	-2.5	19.7	-18.4	8.7	187	3625	1	0.63	1.88	0.76	1.52	2	0.63	2.59	0.71	2.34	2	0.4	289.74	0.72	196.76	8.5	15.3	-4.3	2	499	919	697	8.5	15.3	271	3625	1	0.35	1.31	2	0.54	347.73	635	-4.3	2	380	1870	1	0.28	1.25	1	0.41	155.36	1084	6.1	19.7	-8.4	8.7	500	917	1	0.59	1.63	2	0.68	2.04	1	0.26	74.88
"DOVJOK"	"Neotoma"	703	723	"Dovjok Swamp"	28.25	48.75	"Europe"	2952	4.4	33.9	-3.4	21.7	99	3625	2	0.57	2.91	0.74	2.25	2	0.68	2.47	0.8	1.95	1	0.26	317.91	0.73	192.59	14.7	21.5	4.6	10.1	478	898	1846	14.8	21.5	349	2252	2	0.42	1.21	1	0.34	240.17	1480	4.6	10	151	3625	2	0.43	1.1	2	0.42	314.51	1938	4.4	30.8	-3.4	18.6	478	897	2	0.55	2.21	2	0.73	1.99	1	0.26	88.4
"EDESSA"	"Neotoma"	765	784	"Edessa"	21.9525	40.818056	"Europe"	2464	4.4	33.9	-3.4	23.1	51	2121	2	0.57	2.96	0.71	2.43	2	0.62	2.55	0.75	2.08	2	0.48	243.27	0.73	174.94	15.7	25.1	7.2	13.9	176	1009	1785	15.7	25	170	2121	2	0.63	1.57	2	0.45	196.69	1298	7.2	13.9	189	1740	2	0.45	1.32	2	0.46	197.6	1767	4.4	33.9	-3.4	21.7	176	1008	2	0.49	2.68	2	0.59	2.34	2	0.33	131.41
"GAGRA"	"Neotoma"	831	858	"Gagra"	40.266667	43.283333	"Europe"	1601	8.6	33.9	-2.4	23.1	51	2121	2	0.49	2.85	0.69	2.23	2	0.71	2.62	0.83	2.03	2	0.46	155.29	0.65	124.55	15.2	21.3	4.9	13.5	563	1000	966	15.2	21.3	251	1097	2	0.42	1.09	1	0.34	83.74	838	4.9	13.4	111	1241	1	0.61	1.52	1	0.33	116.03	962	8.6	30.8	-2.4	19.6	563	985	2	0.56	2.19	2	0.76	2.12	2	0.38	69.94
"GELMT"	"Neotoma"	839	867	"Gel'myazevskoye"	31.833333	49.666667	"Europe"	3054	4.4	33.9	-3.4	21.7	99	2895	2	0.6	2.75	0.77	2.08	2	0.72	2.41	0.83	1.87	2	0.41	252.73	0.76	160.62	17.6	22.1	3.3	10.4	386	691	799	17.6	22	315	1582	2	0.55	0.92	1	0.25	139.26	1671	3.3	10.3	151	2895	2	0.53	1.25	2	0.5	253.91	1522	4.4	30.8	-3.4	18.6	388	690	2	0.6	2	2	0.78	1.98	2	0.35	55.59
"GRASVATN"	"Neotoma"	947	977	"Grasvatn"	8.689085	63.702905	"Europe"	2083	3.5	21.4	-11.3	12.5	244	3625	2	0.66	1.8	0.81	1.33	2	0.71	1.98	0.86	1.39	2	0.4	319.12	0.75	206.27	7.3	17.7	-2.1	6	546	1480	1754	7.4	17.7	380	3625	2	0.59	1.67	2	0.41	334.76	1146	-2.1	6	380	3625	2	0.52	1.64	1	0.39	305.98	1684	4.4	21.4	-4	12.5	546	1471	2	0.65	1.85	2	0.67	1.97	2	0.5	177.41
"IVAN3"	"Neotoma"	1121	1155	"Ivanovskoye Peat Bog"	38.766667	56.816667	"Europe"	2661	6.8	26.7	-8.4	14.4	130	3625	2	0.66	2	0.84	1.38	2	0.74	2.27	0.85	1.69	1	0.28	264.98	0.73	164.03	13.5	21.6	-0.6	7.7	213	835	1906	13.6	21.6	261	3568	2	0.53	1.13	1	0.38	183.78	1779	-0.6	7.7	170	3625	2	0.64	1.4	2	0.44	265.6	2280	8.2	25	-8.4	14.4	261	834	2	0.66	1.77	2	0.75	2.25	1	0.35	89.18
"KALSA"	"Neotoma"	1398	1434	"Kalsa Mire"	27.41146	58.19142	"Europe"	2715	4.4	26.2	-4.3	15.8	173	3625	2	0.65	2.11	0.82	1.5	2	0.75	1.99	0.85	1.51	2	0.4	296.15	0.75	193.54	11	21.3	-1.5	8.5	214	1076	2246	11.1	21.2	380	3625	2	0.6	1.38	1	0.34	320.74	2181	-1.5	8.5	173	3625	2	0.67	1.65	2	0.44	303.36	2279	4.4	25.8	-4.3	15.1	271	1074	2	0.66	2.06	2	0.79	1.9	2	0.38	115.97
"KAMEN"	"Neotoma"	1399	1435	"Kamenicky"	15.970885	49.72651	"Europe"	3487	4.4	26.7	-3.4	18	210	3625	2	0.64	2.57	0.82	1.82	2	0.71	2.31	0.85	1.68	2	0.38	302.48	0.74	197.62	11.9	17.4	1.6	7.6	637	1265	1592	11.9	17.3	451	3625	1	0.33	1.1	2	0.37	339	1391	1.6	7.6	437	3625	2	0.44	1.25	1	0.38	354.79	1782	5.9	25.9	-2.6	16.9	637	1264	2	0.59	2.42	2	0.7	2.19	1	0.3	141.42
"KANSJON"	"Neotoma"	1401	1438	"Kansjon"	14.53458	57.64055	"Europe"	2878	4.4	25.8	-3.4	15.9	210	3625	2	0.54	2.39	0.76	1.73	2	0.67	2.21	0.82	1.63	1	0.29	326.42	0.73	200.07	9.6	23	-1	11.2	447	945	2654	9.6	22.9	260	3625	2	0.52	1.92	1	0.3	329.6	2539	-1	11.2	380	3625	2	0.63	1.87	1	0.32	326.29	1816	4.4	25.6	-3.4	15.9	448	945	2	0.6	1.83	2	0.78	1.81	1	0.25	98.86
"KARDAS"	"Neotoma"	1403	1440	"Kardashinski Swamp"	32.616667	46.516667	"Europe"	2474	4.4	33.9	-3.4	23.1	51	2121	2	0.6	2.73	0.75	2.14	2	0.69	2.47	0.81	1.91	2	0.47	224.79	0.75	153.7	17.8	23	4.7	9.6	267	741	840	17.9	23	194	2121	2	0.52	1.17	1	0.29	168.59	1087	4.7	9.6	151	1934	1	0.43	0.97	2	0.57	212.1	1528	4.4	32.7	-3.4	19.3	271	737	2	0.51	2.21	2	0.72	1.98	2	0.38	68.77
"KIRIKU"	"Neotoma"	1484	1522	"Kirikumae"	27.25128	57.68291	"Europe"	2782	4.4	26.2	-4.3	15.8	173	3625	2	0.64	2.15	0.82	1.53	2	0.75	2	0.85	1.53	1	0.33	314.4	0.74	195.43	12.1	22.7	-1.7	8.8	183	930	2273	12.1	22.7	336	3625	2	0.63	1.41	1	0.33	316.79	2290	-1.7	8.8	173	3625	2	0.67	1.69	2	0.44	303.76	2141	4.4	25.8	-4.3	15.1	271	926	2	0.65	1.83	2	0.81	1.81	1	0.28	95.77
"LAGOAJO"	"Neotoma"	1537	1577	"Lago de Ajo"	-6.13878	43.041685	"Europe"	2252	4.4	26.7	-3.4	18.2	210	2392	2	0.69	2.61	0.82	2	2	0.66	2.44	0.79	1.9	2	0.54	273.7	0.77	194.34	13.9	22.3	6.5	12.3	228	1424	1360	14	22.2	315	1943	2	0.45	1.39	2	0.36	279.24	1165	6.6	12.3	349	2319	1	0.33	1.15	2	0.44	261.65	1966	4.4	26.7	-3.4	18.2	229	1422	2	0.68	2.66	2	0.65	2.48	2	0.52	212.91
"SANABRIA"	"Neotoma"	2255	2335	"Sanabria Marsh"	-6.733333	42.1	"Europe"	2175	4.4	26.7	-3.4	18.2	210	2319	2	0.69	2.64	0.82	2.01	2	0.66	2.47	0.79	1.92	2	0.55	261.33	0.75	194.35	11.2	22.2	3.9	13.1	600	1289	1473	11.3	22.2	315	2319	2	0.43	1.76	2	0.38	278.4	1434	3.9	13.1	315	2319	2	0.47	1.47	2	0.41	276.92	1138	5.9	26	-2.3	17.8	601	1289	2	0.53	2.45	2	0.57	2.34	1	0.23	152.15
"A159"	"Neotoma"	2960	3859	"Black Sea (Southwest 1)"	28.916667	42.184167	"Europe"	2304	4.4	33.9	-3.4	23.1	51	2121	2	0.6	2.89	0.74	2.31	2	0.65	2.51	0.78	2.01	2	0.5	239.69	0.76	166.83	19.6	27.2	7.5	12.9	-91	734	651	19.6	27.1	118	2121	2	0.31	1.43	2	0.46	189.06	872	7.5	12.9	143	1740	2	0.48	1.08	2	0.35	162.46	1275	4.4	33.9	-3.4	23.1	51	734	2	0.51	2.62	2	0.7	2.15	2	0.56	86.69
"AF1974_neotoma"	"Neotoma"	2965	3865	"Abernethy Forest"	-3.710556	57.235278	"Europe"	2728	4.4	26.2	-8.1	17	330	3625	2	0.7	2.36	0.84	1.7	2	0.74	2.24	0.86	1.65	2	0.38	324.18	0.72	218.7	6.6	17.3	-2.7	7.9	529	1440	1769	6.7	17.2	380	3625	2	0.55	1.89	2	0.31	342.16	1488	-2.7	7.9	380	3625	2	0.64	1.82	2	0.35	349.11	1971	4.4	26	-3.4	17	529	1439	2	0.56	2.26	2	0.65	2.22	2	0.37	193.76
"AHOLAMMI"	"Neotoma"	2966	3866	"Aholammi"	25.21692	61.8947	"Europe"	2268	4.1	24.2	-8.4	11.5	296	3625	2	0.68	1.8	0.82	1.33	2	0.76	2	0.85	1.58	2	0.42	297.11	0.74	197.29	14.7	17.5	1.6	5.3	383	1003	1079	14.7	17.5	493	2252	1	0.28	0.64	2	0.51	236.31	563	1.6	5.3	459	3625	1	0.35	0.87	1	0.35	273.26	1882	4.1	23.5	-8.4	11.5	385	1001	2	0.68	1.71	2	0.79	1.94	1	0.23	106.84
"ALGENDAR"	"Neotoma"	2968	3868	"Algendar"	3.958611	39.940556	"Europe"	2511	4.4	26.7	-3.4	18.2	210	2235	2	0.67	2.64	0.8	2.03	2	0.66	2.42	0.79	1.91	2	0.51	251.79	0.74	184.9	15.2	24.6	7.3	16.3	519	1319	1659	15.2	24.6	210	1842	2	0.56	1.67	2	0.4	231.21	1689	7.3	16.3	210	1801	2	0.62	1.67	2	0.51	203.09	1660	4.4	26.7	-3.4	18	520	1318	2	0.58	2.53	2	0.61	2.35	1	0.29	174.73
"ALLOS"	"Neotoma"	2969	3869	"Plan du Laus"	6.702222	44.241667	"Europe"	2966	4.4	26.7	-3.4	18.2	210	3625	2	0.69	2.66	0.83	1.95	2	0.69	2.51	0.83	1.85	2	0.42	309.3	0.74	206.9	5.6	20.6	-1.7	10.3	363	1946	2146	5.9	20.6	444	3625	2	0.5	2.27	1	0.24	341.1	1893	-1.6	10.3	483	3625	2	0.49	1.9	1	0.27	345.7	2839	4.4	26.7	-3.4	18	364	1943	2	0.68	2.67	2	0.68	2.48	2	0.45	259.38
"ALSA"	"Neotoma"	2970	3870	"Alsa"	-4.016667	43.117778	"Europe"	2338	4.4	26.7	-3.4	18.2	210	2895	2	0.69	2.58	0.82	1.96	2	0.66	2.41	0.8	1.87	2	0.52	279.37	0.75	201.44	11.4	21.6	3.4	13.9	620	1267	1574	11.5	21.5	349	2895	2	0.4	1.63	1	0.31	312.55	1673	3.4	13.9	260	2895	2	0.5	1.58	2	0.4	297.52	1184	5.9	25.9	-2.3	17.4	620	1264	2	0.52	2.38	2	0.56	2.26	1	0.24	146.99
"AMPOIX"	"Neotoma"	2972	3872	"Ampoix"	2.933333	45.633333	"Europe"	2888	4.4	26.7	-3.4	18.2	210	3625	2	0.7	2.64	0.83	1.95	2	0.7	2.48	0.83	1.85	2	0.42	313.55	0.74	210.34	10.1	22	0.7	14.9	465	1477	2043	10.1	21.9	315	3625	2	0.45	1.91	1	0.24	354.77	2503	0.7	14.9	210	3625	2	0.63	2.08	2	0.4	323.6	2241	4.4	26.7	-3.4	18	466	1472	2	0.62	2.58	2	0.66	2.43	2	0.33	215.79
"AMSOPO2"	"Neotoma"	2973	3874	"Amsoldingersee"	7.575	46.725	"Europe"	3158	4.4	26.7	-3.4	18.2	210	3625	2	0.69	2.64	0.84	1.91	2	0.7	2.48	0.84	1.82	2	0.4	309.37	0.73	207.84	9.5	20.7	-1.3	12.1	414	1191	2167	9.6	20.6	444	3625	2	0.47	1.82	1	0.24	346.59	2326	-1.2	12.1	349	3625	2	0.53	2.02	1	0.25	346.33	2308	4.4	26.7	-3.4	18	417	1190	2	0.65	2.61	2	0.7	2.43	2	0.32	163.48
"AMSOPO3"	"Neotoma"	2973	3875	"Amsoldingersee"	7.575	46.725	"Europe"	3158	4.4	26.7	-3.4	18.2	210	3625	2	0.69	2.64	0.84	1.91	2	0.7	2.48	0.84	1.82	2	0.4	309.37	0.73	207.84	10.5	21	0	12.3	165	1537	2128	10.5	21	403	3625	2	0.46	1.71	1	0.23	349.27	2290	0.1	12.3	349	3625	2	0.53	1.9	1	0.25	347.72	2982	4.4	26.7	-3.4	18.2	210	1532	2	0.68	2.67	2	0.7	2.5	2	0.47	223.07
"AMTKEL1"	"Neotoma"	2974	3876	"Amtkel 1"	41.291667	43.283333	"Europe"	1560	8.6	33.9	-2.4	23.1	51	2121	2	0.47	2.9	0.69	2.24	2	0.71	2.66	0.83	2.07	1	0.4	165.35	0.66	125.41	14.8	19	4	9.5	636	860	671	14.9	18.9	369	1293	1	0.14	0.84	1	0.31	75.76	640	4	9.5	127	1293	2	0.63	0.94	1	0.44	91.27	505	10.2	30.8	-1.3	16.9	637	859	2	0.63	1.88	2	0.78	1.78	1	0.29	41.26
"AMTKEL3"	"Neotoma"	2976	3878	"Amtkel 3"	41.291667	43.266667	"Europe"	1559	8.6	33.9	-2.4	23.1	51	2121	2	0.47	2.9	0.69	2.25	2	0.71	2.66	0.83	2.07	1	0.4	165.39	0.65	125.45	15	18	4.7	7.8	719	764	505	15.1	18	438	1018	1	0.23	0.63	1	0.28	65.9	348	4.7	7.8	170	1293	2	0.54	0.63	2	0.43	94.25	85	10.2	28.1	1.8	14.4	719	764	2	0.81	1.93	2	0.87	1.64	1	0.26	12.13
"ANFSHEIL"	"Neotoma"	2977	3879	"Allt na Feithe Sheilich"	-3.90841	57.31333	"Europe"	2719	4.4	26.2	-8.1	17	330	3625	2	0.7	2.36	0.84	1.7	2	0.74	2.24	0.86	1.65	2	0.38	324.57	0.72	218.95	-3.5	18.4	-15.1	11.5	454	1900	2074	4.4	18.3	380	3625	2	0.55	1.98	1	0.25	348.59	2296	-8.1	11.4	380	3625	2	0.63	2.15	1	0.24	346.69	2342	4.4	26	-8.1	17	455	1870	2	0.56	2.26	2	0.66	2.23	2	0.38	255.85
"ANTU"	"Neotoma"	2979	3882	"Antu Sinijarv"	26.24178	59.0608	"Europe"	2502	4.4	25.1	-4.3	15.8	271	3625	2	0.64	2	0.82	1.4	2	0.71	1.92	0.84	1.43	2	0.42	300.64	0.75	199.37	14.1	21.2	-1.8	9.2	31	1071	1685	14.1	21	449	2668	1	0.45	0.98	1	0.37	248.2	2209	-1.8	9.2	271	3625	2	0.68	1.7	1	0.39	319.56	2046	4.4	25	-4.3	13	271	1070	2	0.65	1.93	2	0.77	1.79	2	0.39	114.76
"AR1"	"Neotoma"	2980	3883	"Arkutino Lake"	27.724545	42.329835	"Europe"	2316	4.4	33.9	-3.4	23.1	51	2121	2	0.6	2.88	0.74	2.31	2	0.65	2.51	0.78	2.01	2	0.49	239.99	0.75	168.13	15.5	23.9	4.5	14.4	393	853	1666	15.5	23.9	186	2121	2	0.62	1.44	2	0.44	194.38	1757	4.5	14.4	143	2121	2	0.64	1.55	2	0.48	227.89	1479	4.4	30.8	-3.4	18.6	394	853	2	0.53	2.21	2	0.66	1.95	1	0.3	82.93
"AR2"	"Neotoma"	2980	3884	"Arkutino Lake"	27.724545	42.329835	"Europe"	2316	4.4	33.9	-3.4	23.1	51	2121	2	0.6	2.88	0.74	2.31	2	0.65	2.51	0.78	2.01	2	0.49	239.99	0.75	168.13	16	30.2	7.4	20.2	339	836	1691	16.1	29.6	94	2121	2	0.62	1.85	1	0.29	183	1219	7.4	20	99	2121	2	0.57	1.94	2	0.36	197.17	1482	4.4	32.4	-3.4	18.8	344	828	2	0.52	2.26	2	0.65	1.97	1	0.29	84.92
"ARONDE"	"Neotoma"	2983	3887	"Aronde"	2.691111	49.4625	"Europe"	3029	4.4	26.7	-3.4	18.2	210	3625	2	0.7	2.6	0.84	1.89	2	0.71	2.42	0.84	1.79	2	0.4	313.4	0.73	210.32	7.7	22.5	0	14.1	365	1397	2378	7.7	22.4	260	3625	2	0.5	2.19	1	0.22	347.83	2441	0	14.1	260	3625	2	0.61	1.97	2	0.32	331.69	2572	4.4	26.7	-3.4	18	366	1396	2	0.68	2.64	2	0.72	2.41	2	0.42	197.47
"ARS1"	"Neotoma"	2985	3889	"Lake Varna"	27.82777	43.19554	"Europe"	2375	4.4	33.9	-3.4	23.1	51	2121	2	0.58	2.88	0.73	2.33	2	0.65	2.48	0.77	2.03	2	0.49	238.67	0.75	167.06	17.8	23.5	7.2	12.6	350	895	896	17.8	23.5	189	2121	2	0.52	1.28	1	0.25	175.69	1006	7.2	12.6	143	1740	2	0.51	1.07	2	0.55	186.43	1633	4.4	30.8	-3.4	18.6	363	891	2	0.54	2.2	2	0.66	1.95	1	0.3	93.48
"ASBOTOR"	"Neotoma"	2986	3890	"Asbotorpsjon"	13.81996	58.40981	"Europe"	2758	4.4	25.1	-3.4	15.8	210	3625	2	0.56	2.21	0.76	1.63	2	0.67	2.13	0.82	1.56	1	0.32	323.58	0.73	202.73	9.9	18.2	-0.8	6	389	1066	2207	9.9	18.1	380	3625	2	0.53	1.52	2	0.4	318.4	1220	-0.8	6	380	3625	1	0.37	1.55	1	0.43	305.87	2089	4.4	24.6	-3.4	15.8	389	1066	2	0.59	2.07	2	0.75	1.94	1	0.35	134.71
"ATW"	"Neotoma"	2988	3892	"Altenweiher"	6.994444	48.013333	"Europe"	3163	4.4	26.7	-3.4	18.2	210	3625	2	0.68	2.63	0.84	1.9	2	0.71	2.45	0.84	1.8	2	0.4	310.74	0.73	207.2	10.8	21.6	0.2	13.5	176	1722	2203	10.9	21.6	349	3625	2	0.44	1.71	1	0.24	347.54	2499	0.2	13.5	260	3625	2	0.58	1.94	1	0.25	342.69	3069	4.4	26.7	-3.4	18.2	210	1717	2	0.68	2.66	2	0.71	2.47	2	0.47	239.45
"ATXURI01"	"Neotoma"	2989	3893	"Atxuri"	-1.551111	43.250278	"Europe"	2563	4.4	26.7	-3.4	18.2	210	2935	2	0.68	2.57	0.82	1.95	2	0.67	2.39	0.8	1.84	2	0.49	288.31	0.74	205.36	15.2	19.5	7.8	11.8	724	1210	1171	15.3	19.4	485	1842	2	0.31	0.9	2	0.4	225.73	958	7.8	11.8	383	2148	1	0.28	0.89	2	0.52	200.8	1022	5.9	25.9	-2.3	17.4	724	1210	2	0.54	2.51	2	0.59	2.39	1	0.18	118.93
"AUNEAU"	"Neotoma"	2990	3894	"Auneau"	1.793611	48.456111	"Europe"	2986	4.4	26.7	-3.4	18.2	210	3625	2	0.7	2.61	0.84	1.9	2	0.71	2.44	0.84	1.8	2	0.4	314.03	0.73	211.47	10.8	21.3	3.1	13	645	1325	2025	10.9	21.3	349	3625	2	0.45	1.67	1	0.22	354.74	2014	3.1	13	315	3625	2	0.54	1.5	1	0.26	351.7	1640	5.9	25.9	-2.6	17.4	645	1323	2	0.59	2.52	2	0.67	2.34	1	0.23	160.48
"BABOZ1"	"Neotoma"	2992	3896	"Babozero"	37.516667	66.375	"Europe"	2094	3.5	24.2	-10.4	8.8	270	3625	2	0.67	1.83	0.81	1.38	2	0.63	2.51	0.74	2.09	2	0.4	260.15	0.74	170.62	13	17.9	-2.6	2.2	300	576	1185	13.1	17.9	361	3568	2	0.39	1.01	2	0.49	234.58	867	-2.6	2.2	365	1870	1	0.31	1.14	2	0.49	133.77	887	3.5	24.2	-10.4	8.8	314	575	2	0.71	1.7	2	0.62	2.69	1	0.16	56.38
"BASVILLE"	"Neotoma"	2996	3900	"Basse-Ville"	-1.858056	47.186111	"Europe"	2722	4.4	26.7	-3.4	18.2	210	3625	2	0.71	2.58	0.84	1.89	2	0.71	2.46	0.84	1.82	2	0.42	316.67	0.73	216.16	13.1	24.9	4.6	16.3	365	1234	1944	13.1	24.8	210	3568	2	0.59	1.83	2	0.37	309.34	2162	4.6	16.3	210	3625	2	0.68	1.73	2	0.46	314.32	2117	4.4	26.7	-3.4	18	365	1230	2	0.71	2.56	2	0.72	2.42	2	0.45	173.46
"BEBR5"	"Neotoma"	2998	3902	"Bebrukas Lake"	24.121111	54.085278	"Europe"	3180	4.4	26.7	-3.4	17.2	210	3625	2	0.59	2.47	0.78	1.8	2	0.72	2.22	0.84	1.7	1	0.3	313.1	0.72	197.33	11.9	22.1	-2	10.5	267	899	2428	12	22	315	3625	2	0.52	1.53	1	0.31	317.88	2690	-2	10.5	271	3625	2	0.66	1.91	1	0.34	316.72	2178	4.4	26.7	-3.4	17.2	271	899	2	0.65	1.98	2	0.81	1.89	1	0.28	100.37
"BELATE01"	"Neotoma"	3004	3910	"Puerto de Belate"	-2.05	43.033333	"Europe"	2505	4.4	26.7	-3.4	18.2	210	2895	2	0.68	2.57	0.82	1.95	2	0.66	2.4	0.8	1.85	2	0.51	280.71	0.74	202.24	14	19.2	6.7	12.2	884	1324	1270	14.1	19.2	485	2152	2	0.3	1	2	0.4	259.96	1260	6.8	12.2	349	2271	1	0.3	1.12	2	0.46	249.06	713	5.9	25.1	-2.3	16.3	884	1323	2	0.58	2.42	1	0.57	2.45	1	0.11	111.49
"BELLE"	"Neotoma"	3006	3913	"Belle Lake"	-7.033333	52.183333	"Europe"	2624	4.4	26.7	-3.4	18.2	210	3625	2	0.73	2.54	0.85	1.85	2	0.72	2.45	0.85	1.8	2	0.43	318.44	0.73	219.66	5.4	21.4	-5.1	14.9	612	1519	2064	5.9	21.3	349	3625	2	0.53	2.27	1	0.22	348.14	2422	-3.4	14.9	210	3625	2	0.69	2.31	2	0.39	326.37	1744	5.9	25.9	-2.6	17.8	613	1519	2	0.59	2.36	2	0.63	2.37	2	0.31	206.72
"BERGAKYL"	"Neotoma"	3009	3923	"Bergakyllen"	16.14528	57.18367	"Europe"	2948	4.4	25.8	-3.4	15.9	210	3625	2	0.55	2.41	0.76	1.75	2	0.68	2.21	0.83	1.64	1	0.29	324.45	0.73	199.72	11.8	19.2	-1.6	7.3	415	856	2162	11.9	19.2	380	3625	2	0.49	1.27	2	0.39	315.01	1705	-1.6	7.3	380	3625	2	0.53	1.71	2	0.45	321.87	1737	4.4	25.8	-3.4	15.9	416	856	2	0.63	1.87	2	0.79	1.85	1	0.26	85.69
"BESBOG"	"Neotoma"	3012	3926	"Besbog"	23.524175	41.73302	"Europe"	2484	4.4	33.9	-3.4	23.1	51	2121	2	0.57	2.96	0.71	2.42	2	0.62	2.55	0.75	2.07	2	0.48	241.37	0.74	171.43	13.1	19.8	4	8.6	392	1220	1473	13.1	19.7	403	1934	1	0.29	1.14	1	0.46	225.07	1180	4	8.6	296	1934	2	0.51	0.9	2	0.59	215.96	2038	4.4	30.8	-3.4	19.6	394	1218	2	0.53	2.69	2	0.6	2.35	1	0.32	157.62
"BEYSEHIR"	"Neotoma"	3013	3927	"Beysehir Golu I"	31.5	37.541667	"Europe"	1322	5.9	33.9	-2.4	23.1	51	2121	2	0.54	2.91	0.68	2.42	2	0.62	2.6	0.74	2.15	2	0.43	190.34	0.59	160.51	15	22	4.6	11.4	479	870	774	15.1	21.9	234	1740	2	0.6	1.24	1	0.2	167.61	771	4.7	11.4	271	1740	2	0.56	1.14	1	0.33	150.53	914	7.9	30.8	-0.8	18.6	479	868	2	0.54	2.31	2	0.62	2.02	1	0.34	77.94
"BEZDON"	"Neotoma"	3014	3928	"Bezdonnoe"	32.766667	62.033333	"Europe"	2307	6	26.2	-9.2	11.5	173	3625	2	0.69	1.79	0.83	1.32	2	0.7	2.28	0.82	1.78	2	0.37	254.85	0.74	165.11	11.2	18.3	-2.8	4.8	390	895	1738	11.3	18.3	316	3625	2	0.62	1.22	2	0.42	261.57	1309	-2.7	4.8	346	3370	2	0.52	1.42	2	0.37	180.79	1971	6	23.5	-8.4	11.5	391	890	2	0.67	1.56	2	0.73	2.07	1	0.33	88.66
"BIOT"	"Neotoma"	3016	3930	"Biot"	7.1	43.8	"Europe"	2960	4.4	26.7	-3.4	18.2	210	3625	2	0.69	2.67	0.83	1.96	2	0.68	2.52	0.83	1.85	2	0.43	308.02	0.74	207.44	13.9	24.2	5.1	15.6	440	1449	2012	13.9	24.1	210	3059	2	0.56	1.71	2	0.35	275.52	2313	5.2	15.5	210	3568	2	0.65	1.73	2	0.43	303.9	2306	4.4	26.7	-3.4	18	440	1449	2	0.62	2.65	2	0.66	2.48	2	0.33	208.33
"BJARHG"	"Neotoma"	3017	3931	"Bjarsjoholmssjon"	13.780255	55.45396	"Europe"	3067	4.4	25.9	-3.4	17	210	3625	2	0.57	2.45	0.78	1.78	2	0.7	2.25	0.84	1.66	1	0.29	323.21	0.73	200.98	15.8	23	6.6	13.5	757	975	1658	15.9	22.9	260	1740	1	0.39	1.32	2	0.47	173.63	1358	6.6	13.5	260	2319	1	0.31	1.34	2	0.45	253.73	555	5.9	25.9	-2.6	16.8	758	975	2	0.61	2.18	2	0.71	2.05	1	0.16	56.77
"BJARSJON"	"Neotoma"	3018	3932	"Bjarsjon"	13.656065	58.33456	"Europe"	2765	4.4	25.1	-3.4	15.8	210	3625	2	0.56	2.21	0.76	1.63	2	0.67	2.13	0.82	1.56	1	0.32	323.34	0.73	202.46	6.6	17.6	-4.1	6.2	468	1109	2215	6.7	17.6	380	3625	2	0.55	1.88	2	0.39	320.46	1468	-3.4	6.2	380	3625	2	0.53	1.73	1	0.42	300.06	2087	4.4	24.6	-3.4	15.8	469	1108	2	0.58	2.11	2	0.73	1.97	2	0.43	128.49
"BJORKSJO"	"Neotoma"	3020	3934	"Bjorksjodamm"	12.34641	57.709	"Europe"	2809	4.4	25.1	-3.4	15.9	210	3625	2	0.54	2.28	0.74	1.7	2	0.67	2.18	0.82	1.62	1	0.3	324.66	0.73	203.29	9.8	15.9	-1.3	4.4	611	951	1135	9.9	15.9	380	3625	2	0.43	1.4	2	0.44	370.77	845	-1.3	4.4	380	3370	1	0.28	1.38	1	0.55	231.62	1178	6	24.7	-2.7	15.9	612	950	2	0.55	1.73	2	0.74	1.65	2	0.33	75.34
"BLATO1"	"Neotoma"	3021	3935	"Blato"	15.19097	49.04174	"Europe"	3577	4.4	26.7	-3.4	18.2	210	3625	2	0.66	2.57	0.83	1.8	2	0.71	2.33	0.85	1.66	2	0.39	300.67	0.74	195.89	11.4	18.4	1.4	9	692	1537	1976	11.5	18.4	451	3625	1	0.34	1.26	2	0.37	322.52	2026	1.4	9	451	3625	2	0.56	1.4	1	0.37	323.94	1758	5.9	25.9	-2.6	16.8	693	1532	2	0.6	2.51	2	0.66	2.4	2	0.33	194.62
"BLAVASS"	"Neotoma"	3022	3937	"Blavasstjonn"	11.660645	64.911095	"Europe"	1953	3.5	19.7	-11.3	11.7	244	3625	2	0.68	1.6	0.83	1.16	2	0.75	1.82	0.87	1.33	2	0.4	321.42	0.75	208.71	11.3	16.8	-0.7	5	610	1276	1084	11.4	16.8	380	3625	2	0.61	0.99	2	0.45	379.23	706	-0.7	5	380	3625	2	0.5	1.25	1	0.27	242.85	1106	6.8	19.7	-2.7	11.7	610	1262	2	0.7	1.64	2	0.78	1.55	2	0.36	119.18
"BLEDOWO3"	"Neotoma"	3023	3938	"Bledowo Lake"	20.67577	52.54316	"Europe"	3161	4.4	26.7	-3.4	17.6	210	3625	2	0.6	2.47	0.78	1.82	2	0.71	2.24	0.83	1.71	1	0.31	315.07	0.72	200.06	11.6	21.9	-1.3	11.7	521	896	2453	11.7	21.9	315	3625	2	0.51	1.58	1	0.32	320.56	2728	-1.3	11.7	271	3625	2	0.65	1.9	1	0.35	315.79	1802	4.4	26.7	-3.4	17.6	522	891	2	0.62	1.83	2	0.78	1.81	1	0.26	85.74
"BLKLOCH4"	"Neotoma"	3024	3940	"Black Loch"	-3.194722	56.320833	"Europe"	2766	4.4	26.2	-7.8	17.3	210	3625	2	0.71	2.42	0.85	1.72	2	0.74	2.27	0.86	1.66	2	0.39	323.43	0.72	217.98	8.6	14.6	-1.3	5.6	704	1142	611	8.7	14.5	380	3625	2	0.3	1.27	2	0.34	400.05	716	-1.3	5.6	380	3625	1	0.33	1.56	1	0.4	305.86	1018	5.9	24.6	-2.6	15.7	705	1141	2	0.66	2.24	2	0.71	2.24	1	0.21	107.31
"BLOMOY"	"Neotoma"	3025	3941	"Blomoy"	4.883333	60.533333	"Europe"	2460	4	23.6	-11.3	14.2	244	3625	2	0.57	2.03	0.75	1.56	2	0.69	2.07	0.82	1.56	2	0.37	315.19	0.73	207.5	8.7	15.6	-1.9	7.4	603	1309	996	8.9	15.6	380	3625	2	0.44	1.41	2	0.44	378.09	1582	-1.9	7.4	380	3625	2	0.61	1.71	2	0.45	330.16	1643	5.9	23.6	-2.7	14.2	604	1308	2	0.59	2.08	2	0.69	1.92	2	0.44	142.72
"BOHINGSE"	"Neotoma"	3030	3946	"Boehnigsee Goldmoos"	7.843056	46.259167	"Europe"	3152	4.4	26.7	-3.4	18.2	210	3625	2	0.69	2.64	0.83	1.92	2	0.7	2.48	0.84	1.82	2	0.4	309.41	0.73	207.78	8.4	16.5	-0.2	6.3	569	1339	1136	8.5	16.4	528	3625	2	0.46	1.62	1	0.15	398.3	771	-0.1	6.3	528	3625	1	0.36	1.52	2	0.36	347.91	2072	5.9	26.7	-2.6	18	570	1339	2	0.62	2.53	2	0.69	2.36	1	0.28	169.06
"BRASPART"	"Neotoma"	3034	3951	"Saint Michel de Braspart"	-3.666667	48.416667	"Europe"	2693	4.4	26.7	-3.4	18.2	210	3625	2	0.71	2.57	0.85	1.89	2	0.71	2.46	0.84	1.82	2	0.42	318.12	0.73	217.75	11.9	18	2.7	12	1003	1555	1344	12	17.9	535	3625	2	0.39	1.16	1	0.26	365.07	1722	2.7	11.9	378	3625	2	0.44	1.48	1	0.28	357.71	792	6.7	21.8	-2.5	14.9	1004	1553	2	0.58	2.21	2	0.63	2.26	2	0.31	143.67
"BREDCOUN_neotoma"	"Neotoma"	3035	3953	"Brede Bridge"	0.67685	50.90621	"Europe"	2893	4.4	26.7	-3.4	18.2	210	3625	2	0.7	2.57	0.84	1.86	2	0.71	2.42	0.84	1.8	2	0.4	315.93	0.73	213.76	13.1	23	5.1	13.9	611	1231	1938	13.1	22.9	260	3568	2	0.48	1.59	2	0.31	313.93	1833	5.1	13.9	260	3568	2	0.55	1.41	1	0.28	345.48	1645	5.9	26	-2.6	17.8	612	1230	2	0.59	2.43	2	0.68	2.27	1	0.25	148.72
"BUTTER"	"Neotoma"	3040	3966	"Butter Mountain"	-6.04608	54.18523	"Europe"	2708	4.4	26.7	-3.4	18.2	210	3625	2	0.72	2.52	0.85	1.83	2	0.72	2.41	0.85	1.78	2	0.43	317.82	0.73	218.93	11.7	16.1	6.8	9.7	1194	1943	713	11.8	16	572	3625	2	0.4	0.99	1	0.14	420.3	896	6.8	9.7	485	2252	1	0.26	0.62	2	0.52	238.81	519	7	21.4	-1.8	14.9	1197	1934	2	0.46	1.89	2	0.54	1.96	1	0.15	161.35
"CAM-LG"	"Neotoma"	3043	3969	"Cam Loch"	-5.03553	58.073755	"Europe"	2537	4.4	25.6	-8.1	17	330	3625	2	0.64	2.33	0.81	1.7	2	0.7	2.24	0.84	1.66	2	0.34	332.27	0.7	224.76	5.3	15.7	-2.8	6.2	431	1414	1046	5.9	15.6	380	3625	2	0.51	1.81	1	0.23	394.72	979	-2.7	6.2	380	3625	2	0.52	1.81	2	0.4	327.39	2021	4.4	24.6	-8.1	17	431	1414	2	0.56	2.26	2	0.67	2.23	2	0.33	201.89
"CARRIV"	"Neotoma"	3044	3971	"Carrivmoragh"	-5.98393	54.30019	"Europe"	2736	4.4	26.7	-3.4	18.2	210	3625	2	0.72	2.51	0.85	1.82	2	0.72	2.4	0.85	1.77	2	0.42	317.96	0.73	218.4	11.8	18	4.1	10.3	982	1559	1467	11.8	18	500	3625	2	0.43	1.2	2	0.32	347.96	1504	4.1	10.3	483	3625	2	0.44	1.12	1	0.3	351.68	884	6.7	23.3	-2.5	14.9	983	1558	2	0.59	2.27	2	0.65	2.33	2	0.32	147.03
"CAUDELAI"	"Neotoma"	3045	3972	"La Caudelais"	-1.800278	47.254444	"Europe"	2726	4.4	26.7	-3.4	18.2	210	3625	2	0.71	2.58	0.84	1.89	2	0.71	2.46	0.84	1.82	2	0.42	316.61	0.73	216.15	9.9	26	0.9	17	254	1328	2506	9.9	26	210	3625	2	0.69	2.3	2	0.42	323.63	2505	1	17	210	3625	2	0.68	2.15	2	0.42	321.47	2287	4.4	26.7	-3.4	18.2	254	1326	2	0.71	2.61	2	0.72	2.47	2	0.47	190.3
"CBB75"	"Neotoma"	3046	3973	"Vallon de Provence"	6.404167	44.391111	"Europe"	2957	4.4	26.7	-3.4	18.2	210	3625	2	0.69	2.66	0.83	1.96	2	0.69	2.51	0.83	1.85	2	0.42	309.54	0.74	207.12	12.7	19.4	3.5	9.8	302	1926	1604	12.8	19.3	485	3568	1	0.3	1.28	1	0.27	330.66	1493	3.5	9.8	485	3625	1	0.35	1.15	1	0.32	346.87	2870	4.4	26.7	-3.4	18	304	1925	2	0.68	2.68	2	0.69	2.49	2	0.47	251.05
"CHAMB5"	"Neotoma"	3048	3977	"Lac de Chambedaze"	2.875278	45.444444	"Europe"	2877	4.4	26.7	-3.4	18.2	210	3625	2	0.7	2.64	0.83	1.96	2	0.7	2.48	0.83	1.85	2	0.42	313.84	0.74	209.8	9.8	23.3	0.7	14.5	311	1584	2212	9.8	23.2	260	3625	2	0.5	2.13	1	0.26	349.53	2346	0.8	14.5	210	3625	2	0.6	2.01	2	0.36	328.9	2705	4.4	26.7	-3.4	18	314	1582	2	0.69	2.68	2	0.7	2.47	2	0.47	233.78
"CHISTIC"	"Neotoma"	3056	3986	"Chistic"	33	57.335	"Europe"	2730	5.9	26.7	-6.2	15.8	143	3625	2	0.65	1.97	0.83	1.38	2	0.75	2.05	0.86	1.56	2	0.38	280.03	0.76	174.47	10.9	20.9	-1	7.6	274	1319	2362	11	20.8	335	3625	2	0.6	1.4	1	0.31	299.65	1841	-1	7.6	296	3625	2	0.65	1.48	2	0.49	288.03	2519	5.9	25.8	-6.2	15.1	296	1319	2	0.64	2.01	2	0.76	2.05	2	0.39	129.49
"CHROISGP_neotoma"	"Neotoma"	3058	3988	"Loch a'Chroisg"	-5.142625	57.57486	"Europe"	2581	4.4	26.2	-8.1	17	330	3625	2	0.67	2.37	0.83	1.72	2	0.72	2.24	0.85	1.66	2	0.36	329.69	0.71	223.48	12.4	16	4.7	7.4	830	1467	679	12.5	15.9	380	3568	2	0.41	0.83	1	0.24	418.35	614	4.7	7.4	500	3625	2	0.42	0.58	1	0.35	403.14	1082	5.9	23.3	-2.6	14.9	833	1461	2	0.59	2.27	2	0.65	2.32	2	0.21	162.12
"CLAP69"	"Neotoma"	3060	3990	"Clapeyret"	7.243333	44.150278	"Europe"	2978	4.4	26.7	-3.4	18.2	210	3625	2	0.69	2.67	0.83	1.95	2	0.69	2.52	0.83	1.85	2	0.42	308.57	0.74	206.97	8.4	18.5	0.8	8.9	638	1606	1759	8.5	18.5	485	3625	1	0.4	1.83	1	0.25	350.46	1509	0.9	8.9	485	3625	2	0.5	1.49	1	0.32	350.51	1955	5.9	25.9	-2.6	17.4	639	1597	2	0.59	2.5	2	0.63	2.42	2	0.33	217.22
"CLATTERI"	"Neotoma"	3061	3991	"Clatteringshaws Loch"	-4.2993	55.07767	"Europe"	2748	4.4	26.7	-7.8	18	210	3625	2	0.72	2.44	0.86	1.74	2	0.73	2.3	0.86	1.68	2	0.4	321.74	0.73	217.4	11.2	18.4	5.3	9.3	745	1813	1639	11.3	18.3	380	3625	2	0.48	1.26	1	0.25	366.81	1209	5.3	9.3	485	3568	1	0.42	0.81	1	0.35	339.24	1514	5.9	24.6	-2.6	15.5	746	1806	2	0.57	2.28	2	0.62	2.32	1	0.2	236.05
"COLFIORI"	"Neotoma"	3064	3994	"Colfiorito"	12.87573	43.019675	"Europe"	3058	4.4	26.7	-3.4	18.2	210	2914	2	0.67	2.55	0.81	1.93	2	0.66	2.38	0.8	1.83	2	0.44	279.02	0.74	190.08	14.9	21.5	5.4	13	441	1072	1742	14.9	21.4	349	2252	1	0.37	1.29	2	0.34	260.79	1950	5.4	13	315	2914	2	0.5	1.38	2	0.37	292.54	1991	4.4	26.7	-3.4	18	441	1072	2	0.61	2.23	2	0.65	2.12	2	0.35	136.68
"COOL69B"	"Neotoma"	3065	3995	"Coolteen"	-6.6	52.35	"Europe"	2659	4.4	26.7	-3.4	18.2	210	3625	2	0.72	2.53	0.85	1.84	2	0.72	2.44	0.85	1.79	2	0.43	317.82	0.73	218.45	7.3	15.4	-2.3	8.4	692	1455	744	7.4	15.3	528	3625	2	0.43	1.73	1	0.15	404.88	1334	-2.2	8.4	485	3625	2	0.57	1.86	1	0.25	365.44	1450	5.9	24.6	-2.6	17.4	693	1452	2	0.59	2.39	2	0.63	2.41	2	0.26	180.76
"COOL71A"	"Neotoma"	3065	3996	"Coolteen"	-6.6	52.35	"Europe"	2659	4.4	26.7	-3.4	18.2	210	3625	2	0.72	2.53	0.85	1.84	2	0.72	2.44	0.85	1.79	2	0.43	317.82	0.73	218.45	7.6	14.7	-2.4	7.8	787	1546	599	7.6	14.7	528	3625	2	0.38	1.5	1	0.21	397.31	1137	-2.3	7.7	500	3625	2	0.61	1.83	1	0.19	377.35	1274	5.9	24.6	-2.6	15.8	787	1544	2	0.57	2.36	2	0.63	2.38	1	0.16	196.17
"CPORTER"	"Neotoma"	3068	3999	"Cala'n Porter"	4.131389	39.870556	"Europe"	2512	4.4	26.7	-3.4	18.2	210	2235	2	0.67	2.64	0.8	2.03	2	0.66	2.42	0.79	1.91	2	0.51	251.78	0.74	184.93	17.6	22.8	8.7	14	515	972	689	17.7	22.8	260	1582	1	0.37	1.3	1	0.24	194.4	815	8.7	14	260	1801	1	0.4	1.21	2	0.52	202.35	1166	4.4	26.7	-3.4	18	515	970	2	0.61	2.09	2	0.64	1.97	1	0.24	106.67
"CREGGAN"	"Neotoma"	3070	4002	"Cregganmore"	-9.6	54.25	"Europe"	2481	4.4	26.7	-7.8	18	235	3625	2	0.73	2.52	0.85	1.88	2	0.73	2.43	0.84	1.84	2	0.43	322.46	0.72	227.5	7.5	17.6	-0.4	10.7	716	1886	1512	7.5	17.5	528	3625	2	0.5	1.86	1	0.19	366.16	1745	-0.3	10.7	407	3625	2	0.56	1.87	1	0.22	362.49	1538	5.9	23.8	-2.6	14.9	719	1870	2	0.57	2.31	2	0.62	2.35	1	0.16	249.61
"CROOB"	"Neotoma"	3072	4004	"Slieve Croob"	-5.983333	54.333333	"Europe"	2737	4.4	26.7	-3.4	18.2	210	3625	2	0.72	2.51	0.85	1.82	2	0.72	2.4	0.85	1.77	2	0.42	317.92	0.73	218.42	11.8	16.7	6.3	10.6	1147	1852	960	11.9	16.6	541	3625	2	0.41	1.02	1	0.18	403.18	1214	6.3	10.6	407	3568	2	0.38	0.87	2	0.4	293.14	544	7	21.4	-2.4	14.9	1147	1843	2	0.45	1.98	2	0.53	2.05	1	0.11	151.69
"CUETOAV"	"Neotoma"	3073	4005	"Cueto de la Avellanosa"	-4.364167	43.116667	"Europe"	2328	4.4	26.7	-3.4	18.2	210	2895	2	0.69	2.58	0.82	1.96	2	0.66	2.41	0.8	1.87	2	0.52	279.59	0.75	203.74	14.7	18.1	7.8	10.2	921	1249	969	14.7	18.1	535	1934	2	0.32	0.7	2	0.42	257.56	692	7.8	10.2	491	2148	1	0.17	0.59	1	0.51	199.05	520	5.9	24.4	-2.3	15.8	924	1243	1	0.52	2.47	1	0.56	2.4	1	0.14	71.76
"DAGSMOO"	"Neotoma"	3077	4011	"Dags Mosse"	14.70652	58.32288	"Europe"	2755	4.4	25.1	-3.4	15.9	210	3625	2	0.56	2.22	0.76	1.64	2	0.67	2.14	0.82	1.57	1	0.31	324.55	0.73	202.72	10.6	23	1.5	11	413	1215	2460	10.6	23	260	3625	2	0.56	1.65	1	0.31	330.77	2107	1.5	11	389	3625	2	0.55	1.55	2	0.42	311.53	2243	4.4	24.7	-3.4	15.9	416	1212	2	0.57	2.19	2	0.72	2.04	2	0.44	143.8
"DALLICAN"	"Neotoma"	3078	4012	"Dallican Water"	-1.09648	60.38736	"Europe"	2443	4	23.6	-11.3	14.6	244	3625	2	0.56	2.04	0.74	1.57	2	0.69	2.11	0.83	1.59	2	0.36	317.8	0.72	211.28	7.8	16.8	-1.8	8.8	592	1768	1594	7.8	16.7	380	3625	2	0.51	1.66	2	0.39	350.3	1937	-1.8	8.7	380	3625	2	0.68	1.72	2	0.43	319.91	2027	5.9	23.6	-2.7	14.6	593	1762	2	0.55	2.11	2	0.63	2.11	2	0.44	226.09
"DLINNOE"	"Neotoma"	3083	4017	"Dlinnoe"	33.85	62.316667	"Europe"	2318	5	26.2	-9.2	11.5	173	3625	2	0.69	1.78	0.83	1.31	2	0.7	2.28	0.82	1.78	2	0.37	254.39	0.74	164.37	11.4	18.2	-1.6	3.7	390	717	1705	11.4	18.2	320	3625	2	0.61	1.2	2	0.42	262.29	934	-1.6	3.7	346	2935	2	0.34	1.08	2	0.36	168.92	1730	5	23.5	-8.4	11.5	391	716	2	0.67	1.56	2	0.72	2.15	2	0.43	59.97
"DUARTBG_neotoma"	"Neotoma"	3086	4021	"Duartbeg"	-5.12887	58.29591	"Europe"	2444	4	25.4	-11.3	17	244	3625	2	0.6	2.28	0.78	1.69	2	0.67	2.25	0.82	1.67	1	0.26	347.46	0.69	225.35	7.7	17.6	0.3	8.1	949	1422	1791	7.7	17.5	380	3625	2	0.53	1.72	2	0.33	342.78	1306	0.3	8.1	380	3625	2	0.59	1.44	1	0.3	368.61	786	5.9	23.3	-2.5	14.9	949	1422	1	0.57	2.46	2	0.67	2.35	2	0.26	122.57
"DURRENEC"	"Neotoma"	3089	4024	"Durrenecksee-Moor"	13.866667	47.166667	"Europe"	3503	4.4	26.7	-3.4	18.2	210	3625	2	0.67	2.61	0.83	1.88	2	0.7	2.39	0.84	1.74	2	0.4	301.26	0.73	200.08	8.6	19.1	-2.1	10.5	283	2050	2216	8.6	19	439	3625	1	0.42	1.82	1	0.29	332.33	2445	-2.1	10.5	381	3625	2	0.52	1.94	1	0.28	333.71	3442	4.4	26.7	-3.4	18.1	290	2033	2	0.67	2.61	2	0.7	2.37	2	0.45	253.66
"DVURANSO"	"Neotoma"	3090	4025	"Dvur Ansov"	16.42123	48.7767	"Europe"	3524	4.4	26.7	-3.4	18	210	3625	2	0.65	2.59	0.83	1.82	2	0.71	2.32	0.85	1.67	2	0.39	301.31	0.74	195.53	12.7	20	2	9.5	339	1138	2202	12.7	20	381	3568	2	0.39	1.26	1	0.3	309.83	2006	2	9.5	403	3625	2	0.58	1.27	1	0.37	325.33	2872	4.4	26.7	-3.4	17.6	341	1138	2	0.65	2.5	2	0.74	2.23	2	0.42	153.96
"EMBOU"	"Neotoma"	3093	4028	"Embouchac"	3.916667	43.566389	"Europe"	2768	4.4	26.7	-3.4	18.2	210	3625	2	0.68	2.57	0.81	1.97	2	0.67	2.38	0.8	1.85	2	0.44	311.93	0.74	211.43	13.1	28.1	5.1	17.9	13	1250	2401	13.2	26.7	210	3568	2	0.71	2.01	2	0.45	288.85	2347	5.1	17.9	210	3568	2	0.69	1.81	2	0.46	299.61	2271	4.4	26.7	-3.4	18.2	210	1243	2	0.67	2.54	2	0.67	2.37	2	0.46	179.04
"ERMISTU"	"Neotoma"	3096	4031	"Lake Ermistu"	23.966667	58.366667	"Europe"	2719	4.4	25.8	-4.3	15.8	210	3625	2	0.59	2.28	0.78	1.67	2	0.69	2.13	0.82	1.63	1	0.35	318.45	0.74	201.2	12.5	22.2	0.5	9.8	384	960	2059	12.5	22.2	315	3568	2	0.55	1.29	1	0.36	313.23	2060	0.5	9.8	271	3625	2	0.61	1.57	1	0.4	322.84	1934	4.4	25.8	-4.3	15.5	385	957	2	0.64	1.81	2	0.79	1.81	1	0.29	100.84
"ESTACAS"	"Neotoma"	3097	4032	"Puerto de las Estacas de Trueba"	-3.700556	43.121389	"Europe"	2357	4.4	26.7	-3.4	18.2	210	2895	2	0.69	2.58	0.82	1.96	2	0.66	2.42	0.8	1.87	2	0.52	280.91	0.75	204.17	14.2	19.7	8.1	12.4	798	1505	1224	14.3	19.6	483	1934	2	0.28	1.06	2	0.39	259.01	810	8.1	12.4	349	2085	1	0.32	0.94	2	0.55	201.59	1062	5.9	24.6	-2.3	15.8	798	1503	1	0.45	2.44	2	0.55	2.28	1	0.14	189.7
"FJELLNAS"	"Neotoma"	3105	4040	"Fjallnas"	12.13394	62.61594	"Europe"	2370	3.5	23.3	-11.3	13	244	3625	2	0.6	1.95	0.79	1.41	2	0.69	2.03	0.84	1.46	2	0.4	316.5	0.74	206.64	1.3	19.5	-15	7.3	157	1140	2335	3.5	19.4	244	3625	2	0.61	1.9	2	0.4	317.51	1708	-11.3	7.3	244	3625	2	0.65	1.78	2	0.45	325.29	1880	3.5	23.3	-11.3	13	244	1139	2	0.65	1.86	2	0.76	1.85	1	0.32	143.34
"FLAATEVA"	"Neotoma"	3106	4041	"Flaatevatn"	6.173345	59.701145	"Europe"	2598	4.4	23.8	-8.1	15.6	210	3625	2	0.55	2.09	0.74	1.6	2	0.67	2.12	0.82	1.59	2	0.36	313.93	0.73	205.69	7.7	16.6	-6.5	6.9	346	1162	1572	7.7	16.6	380	3625	2	0.52	1.64	2	0.39	350.39	1560	-3.4	6.9	380	3625	2	0.57	1.78	2	0.43	322.79	2064	4.4	23.8	-8.1	15.6	349	1162	2	0.59	2.03	2	0.74	1.99	2	0.45	141.6
"FLARKTOT"	"Neotoma"	3107	4042	"Lake Flarken"	13.67319	58.55679	"Europe"	2732	4.4	25.1	-3.4	15.8	210	3625	2	0.55	2.21	0.76	1.64	2	0.66	2.15	0.82	1.57	1	0.31	324.65	0.73	203.16	10.7	21.6	-0.9	9.4	603	832	2376	10.7	21.4	349	3625	2	0.54	1.54	2	0.38	313.71	2259	-0.9	9.4	380	3625	2	0.63	1.7	1	0.37	321.46	1008	6	24.6	-2.7	15.7	603	830	2	0.6	1.48	2	0.76	1.51	1	0.24	54.75
"FLOGELN5"	"Neotoma"	3109	4045	"Flogeln"	8.763889	53.666667	"Europe"	3415	4.4	26.2	-3.4	17.6	210	3625	2	0.66	2.54	0.83	1.78	2	0.73	2.3	0.86	1.66	2	0.37	309.18	0.73	204.38	10.1	19.4	-1	11.6	393	1612	2438	10.2	19.4	380	3625	2	0.48	1.56	1	0.29	332.25	2654	-1	11.6	380	3625	2	0.61	1.89	1	0.3	327.96	3122	4.4	26.2	-3.4	17.3	394	1609	2	0.62	2.53	2	0.72	2.29	2	0.43	229.68
"FOFMOBS6"	"Neotoma"	3110	4047	"Mobeche Forest"	-1	48.516667	"Europe"	2772	4.4	26.7	-3.4	18.2	210	3625	2	0.71	2.58	0.84	1.89	2	0.71	2.45	0.84	1.82	2	0.42	317	0.73	216.46	14.3	20.2	5.7	13.2	688	1100	1471	14.4	20.2	461	2252	2	0.36	1.09	2	0.33	268.34	1657	5.7	13.2	260	3568	2	0.5	1.32	1	0.3	329.46	1117	5.9	24.6	-2.6	17.4	688	1099	2	0.64	2.39	2	0.7	2.3	1	0.23	108.91
"FOUG2"	"Neotoma"	3112	4050	"Grande Briere"	-2.25	47.366667	"Europe"	2696	4.4	26.7	-3.4	18.2	210	3625	2	0.71	2.57	0.84	1.89	2	0.71	2.46	0.84	1.82	2	0.42	317.76	0.73	216.93	11	29.2	2.4	19.9	-76	1888	2411	11	26.7	210	3625	2	0.71	2.15	2	0.43	323.98	2363	2.4	18.2	210	3625	2	0.69	2	2	0.45	320.84	2638	4.4	26.7	-3.4	18.2	210	1870	2	0.71	2.59	2	0.71	2.48	2	0.49	254.06
"FOUGS707"	"Neotoma"	3113	4053	"Fougeres"	-0.833333	48.516667	"Europe"	2786	4.4	26.7	-3.4	18.2	210	3625	2	0.71	2.58	0.84	1.89	2	0.71	2.45	0.84	1.82	2	0.42	316.45	0.73	215.77	15.1	23.1	7.1	14.6	600	1039	1611	15.1	23	260	1928	2	0.52	1.42	2	0.34	251.48	1567	7.1	14.6	210	2252	2	0.61	1.43	2	0.53	233.36	1286	5.9	26	-2.6	17.8	601	1039	2	0.66	2.17	2	0.73	2.09	1	0.24	117.24
"FOUGS948"	"Neotoma"	3113	4055	"Fougeres"	-0.833333	48.516667	"Europe"	2786	4.4	26.7	-3.4	18.2	210	3625	2	0.71	2.58	0.84	1.89	2	0.71	2.45	0.84	1.82	2	0.42	316.45	0.73	215.77	14.8	21.1	7.1	13.8	638	1017	1487	14.8	21	403	2252	2	0.4	1.13	2	0.33	267.82	1392	7.1	13.8	260	2252	1	0.46	1.33	2	0.48	239.8	1057	5.9	25.5	-2.6	17.4	639	1015	2	0.67	2.17	2	0.74	2.08	1	0.21	101.06
"FOURNEAU"	"Neotoma"	3114	4056	"Le Fourneau"	-0.191667	48.444444	"Europe"	2874	4.4	26.7	-3.4	18.2	210	3625	2	0.7	2.61	0.84	1.92	2	0.71	2.46	0.84	1.83	2	0.41	316.53	0.73	215.19	7.7	23.3	-0.2	14.3	616	1201	2352	7.7	23.3	260	3625	2	0.55	2.29	1	0.23	351.09	2368	-0.2	14.3	210	3625	2	0.62	2.06	2	0.32	334.6	1546	5.9	25.9	-2.6	17.4	617	1201	2	0.61	2.48	2	0.68	2.33	1	0.22	142.22
"FRENGSTA"	"Neotoma"	3115	4057	"Frengstadsetra"	10.12398	62.57327	"Europe"	2421	3.5	23.3	-11.3	13	244	3625	2	0.6	1.95	0.79	1.4	2	0.69	2.02	0.85	1.41	2	0.39	314.38	0.74	204.51	-3.1	19.2	-9.7	6.6	578	1169	2364	3.5	19.2	244	3625	2	0.61	1.88	2	0.39	315.55	1463	-8.1	6.6	380	3625	2	0.59	1.77	1	0.39	332.27	1590	5.9	23.3	-2.7	13	578	1167	2	0.61	1.89	2	0.72	1.77	1	0.41	126.43
"FUCHSSCH"	"Neotoma"	3116	4058	"Fuchsschwanzmoos"	13.9	47.116667	"Europe"	3500	4.4	26.7	-3.4	18.2	210	3625	2	0.67	2.61	0.83	1.88	2	0.7	2.39	0.84	1.75	2	0.4	301.3	0.73	200.19	8.4	20.4	0	10.2	658	1544	2423	8.5	20.4	381	3625	2	0.48	1.86	1	0.28	332.38	2266	0	10.2	381	3625	2	0.55	1.64	1	0.33	325.64	1970	5.9	25.9	-2.6	17.4	658	1543	2	0.58	2.52	2	0.66	2.37	2	0.33	200.72
"G89"	"Neotoma"	3117	4059	"Giecz"	17.3655	52.32201	"Europe"	3200	4.4	26.7	-3.4	17.6	210	3625	2	0.6	2.48	0.78	1.83	2	0.71	2.27	0.83	1.72	1	0.29	319.37	0.72	198.94	12.3	23.7	3.2	13.7	617	1013	2613	12.4	23.7	210	3625	2	0.53	1.76	1	0.28	318.35	2311	3.2	13.7	260	3625	1	0.56	1.61	1	0.3	331.18	1451	5.9	25.9	-2.7	16.9	618	1012	2	0.57	2.17	2	0.74	1.97	2	0.29	94.61
"GALDANA"	"Neotoma"	3118	4060	"Cala Galdana"	3.965	39.936944	"Europe"	2511	4.4	26.7	-3.4	18.2	210	2235	2	0.67	2.64	0.8	2.03	2	0.66	2.42	0.79	1.91	2	0.51	251.79	0.74	184.9	16.9	24.8	9.7	15.6	480	1117	1161	16.9	24.8	210	1582	2	0.64	1.5	2	0.4	177.46	901	9.7	15.6	210	1584	2	0.55	1.25	2	0.62	178.2	1574	4.4	26.7	-3.4	18	482	1117	2	0.59	2.39	2	0.61	2.23	1	0.27	153.44
"GALTSJ"	"Neotoma"	3120	4062	"Galtsjon"	15.21014	56.21884	"Europe"	2977	4.4	25.9	-3.4	16.8	210	3625	2	0.57	2.45	0.78	1.75	2	0.69	2.24	0.84	1.63	1	0.29	324.8	0.73	199.37	11.4	18.2	-0.1	8.1	612	826	2039	11.5	18.2	380	3625	2	0.52	1.22	2	0.39	323.09	1793	-0.1	8.1	380	3625	2	0.57	1.53	1	0.36	341.85	987	6	24.7	-2.7	15.9	613	825	2	0.57	1.7	2	0.75	1.63	1	0.23	53.58
"GAR1"	"Neotoma"	3121	4063	"Mire Garvan"	26.911685	44.10742	"Europe"	2568	4.4	33.9	-3.4	23.1	51	2121	2	0.55	2.89	0.7	2.35	2	0.63	2.47	0.76	2.01	2	0.47	235.75	0.74	166.58	18	23	7.4	11.5	409	757	716	18.1	22.9	194	2121	1	0.4	1.24	1	0.25	185.26	921	7.4	11.5	151	1740	1	0.26	0.93	2	0.38	166.08	1309	4.4	30.8	-3.4	18.6	410	756	2	0.54	2.14	2	0.7	1.83	1	0.26	66.66
"GHOBHAIN"	"Neotoma"	3125	4069	"Lochan coir a' Ghobhainn"	-6.277	57.18226	"Europe"	2609	4.4	26.2	-8.1	17	330	3625	2	0.71	2.38	0.85	1.71	2	0.73	2.25	0.86	1.65	2	0.39	326.16	0.72	221.65	6.6	12.4	-2.1	4.9	705	1457	444	6.7	12.3	395	3370	1	0.47	1.23	1	0.25	279.73	601	-2.1	4.9	380	3370	2	0.34	1.53	1	0.42	268.18	1331	5.9	23.6	-2.6	14.9	705	1455	2	0.57	2.33	2	0.63	2.38	2	0.21	180.04
"GIANNITB"	"Neotoma"	3127	4071	"Giannitsa B"	22.316667	40.666667	"Europe"	2440	4.4	33.9	-3.4	23.1	51	2121	2	0.57	2.97	0.71	2.43	2	0.62	2.55	0.75	2.07	2	0.48	243.72	0.73	174.49	16.6	22.8	5.7	11.9	476	899	1219	16.7	22.7	213	2121	2	0.58	1.26	1	0.26	174.2	1435	5.7	11.9	327	1934	1	0.31	1.27	2	0.49	218.04	1425	4.4	30.8	-3.4	18.6	477	891	2	0.53	2.24	2	0.62	1.96	1	0.26	91.32
"GOTNAVOL"	"Neotoma"	3134	4078	"Gotnavolok"	33.8	62.2	"Europe"	2317	5	26.2	-9.2	11.5	173	3625	2	0.69	1.78	0.83	1.31	2	0.7	2.28	0.82	1.78	2	0.37	254.43	0.74	164.41	11.1	21.6	-3.5	4.6	152	859	2062	11.2	21.4	316	3625	2	0.66	1.34	2	0.39	253.96	1320	-3.5	4.6	322	3370	2	0.5	1.47	2	0.37	180.49	1995	5	26.2	-9.2	11.5	173	858	2	0.67	1.65	2	0.7	2.31	2	0.39	84.04
"HAKULLA5"	"Neotoma"	3138	4082	"Hakulls Mosse"	12.51948	56.288335	"Europe"	3029	4.4	25.8	-3.4	17	210	3625	2	0.55	2.45	0.77	1.76	2	0.69	2.26	0.83	1.67	1	0.29	323.52	0.73	201.39	12.2	18.2	4.6	9.4	685	1252	1990	12.2	18.2	380	3625	2	0.47	1.14	2	0.38	320.22	1473	4.6	9.4	485	3625	2	0.51	0.93	1	0.38	337.03	1341	5.9	24.6	-2.6	16.9	685	1252	2	0.59	2.45	2	0.68	2.27	1	0.25	132.91
"HALOS"	"Neotoma"	3139	4083	"Halos I"	22.83784	39.16058	"Europe"	2266	4.4	33.9	-3.4	23.1	51	2121	2	0.58	3.05	0.71	2.51	2	0.61	2.62	0.74	2.14	2	0.49	246.96	0.74	177.13	16.4	23.1	6.7	13.3	389	1052	1258	16.4	23.1	189	2121	2	0.58	1.4	1	0.27	183.65	1280	6.7	13.2	226	1842	2	0.45	1.26	2	0.5	199.4	1656	4.4	30.8	-3.4	19.6	391	1051	2	0.52	2.58	2	0.57	2.26	2	0.38	132.39
"HALSEG"	"Neotoma"	3140	4084	"Halsegyl"	14.6097	56.5436	"Europe"	2958	4.4	25.8	-3.4	15.9	210	3625	2	0.56	2.44	0.77	1.74	2	0.69	2.24	0.83	1.63	1	0.29	325.56	0.73	199.82	11.9	17.2	0.8	4.6	462	933	1567	11.9	17.1	380	3625	2	0.47	1.1	2	0.4	342.96	685	0.9	4.6	493	3370	1	0.28	1	1	0.51	234.42	1807	4.4	24.9	-3.4	15.9	463	931	2	0.61	1.83	2	0.78	1.78	1	0.25	97.14
"HALSJON"	"Neotoma"	3141	4085	"Halsjon II"	15.316667	56.233333	"Europe"	2977	4.4	25.9	-3.4	16.8	210	3625	2	0.57	2.45	0.78	1.75	2	0.69	2.24	0.84	1.63	1	0.29	324.67	0.73	199.23	11.9	16.1	0.1	4.7	610	853	903	12	16	380	3625	2	0.45	0.95	2	0.44	388.13	789	0.1	4.7	380	3370	1	0.32	1.13	1	0.52	232.19	1043	6	24.7	-2.7	15.9	610	851	2	0.56	1.71	2	0.75	1.63	1	0.24	58.25
"HAWKS2"	"Neotoma"	3142	4086	"Hawks Tor"	-4.61178	50.54122	"Europe"	2711	4.4	26.7	-3.4	18.2	210	3625	2	0.71	2.57	0.84	1.89	2	0.71	2.45	0.84	1.82	2	0.42	317.87	0.73	217.24	9.2	18.2	1.7	11	824	1559	1673	9.3	18.2	500	3625	2	0.5	1.67	1	0.22	359.74	1762	1.7	11	407	3625	2	0.48	1.58	1	0.28	353.69	1168	5.9	24.4	-2.6	15.8	825	1558	2	0.58	2.31	2	0.63	2.35	1	0.15	189.19
"HAWKS-3"	"Neotoma"	3142	4087	"Hawks Tor"	-4.61178	50.54122	"Europe"	2711	4.4	26.7	-3.4	18.2	210	3625	2	0.71	2.57	0.84	1.89	2	0.71	2.45	0.84	1.82	2	0.42	317.87	0.73	217.24	8.7	15.5	1.4	7.3	930	1383	755	8.7	15.5	528	3625	2	0.4	1.53	1	0.12	417.93	821	1.4	7.3	500	3625	2	0.45	1.35	1	0.2	403.65	747	5.9	24.4	-2.5	15.8	931	1380	2	0.64	2.32	2	0.69	2.33	1	0.18	110.47
"HIRVILAM"	"Neotoma"	3145	4092	"Hirvilampi"	24.25122	60.62404	"Europe"	2369	4.4	25	-4.8	13	271	3625	2	0.66	1.94	0.83	1.36	2	0.73	1.88	0.85	1.41	2	0.43	300.54	0.76	196.26	13.2	20.7	-1.5	8.3	189	990	1717	13.2	20.6	425	3568	2	0.55	1.02	1	0.41	285.84	1853	-1.5	8.3	296	3625	2	0.66	1.65	2	0.45	310.04	1834	4.4	25	-4.8	13	271	989	2	0.67	1.71	2	0.79	1.69	1	0.27	105.07
"HOCKHAM"	"Neotoma"	3147	4095	"Hockham Mere"	0.833333	52.5	"Europe"	2897	4.4	26.7	-3.4	18.2	210	3625	2	0.7	2.54	0.84	1.85	2	0.72	2.4	0.84	1.79	2	0.41	316.06	0.73	215.06	7.5	22.9	-2.8	14.9	506	1527	2374	7.5	22.8	260	3625	2	0.52	2.21	1	0.24	347.58	2698	-2.6	14.9	210	3625	2	0.69	2.26	2	0.37	321.9	2264	4.4	26.6	-3.4	18	508	1527	2	0.6	2.46	2	0.67	2.33	2	0.38	215.56
"HULEH"	"Neotoma"	3155	4103	"Huleh"	35.528333	33.105556	"Europe"	815	8.6	33.9	-2.4	23.1	51	2121	2	0.42	3.34	0.6	2.78	2	0.53	2.89	0.67	2.44	2	0.49	190.1	0.63	161.6	17.7	25.4	6.8	15.3	646	981	540	17.7	25.3	130	2121	1	0.22	1.41	2	0.46	179.83	591	6.9	15.3	143	2121	1	0.3	1.87	2	0.44	169.49	317	8.6	30.8	-2.4	19.6	649	975	2	0.63	2.61	1	0.65	2.57	1	0.25	69.29
"IMATU"	"Neotoma"	3159	4107	"Imatu Mire"	27.50783	59.10972	"Europe"	2538	4.4	25.1	-4.3	15.8	271	3625	2	0.64	1.98	0.83	1.37	2	0.72	1.88	0.84	1.41	2	0.42	293.14	0.76	190.06	12.5	20.1	-1.9	7.5	205	973	1950	12.5	20.1	380	3568	2	0.53	1.15	2	0.45	285.77	1904	-1.8	7.5	314	3625	2	0.62	1.64	1	0.42	319.64	1996	4.4	25	-4.3	13	271	970	2	0.64	1.69	2	0.77	1.71	1	0.3	96.6
"IOANNINA"	"Neotoma"	3164	4114	"Ioannina I"	20.730556	39.7625	"Europe"	2327	4.4	33.9	-3.4	23.1	51	2121	2	0.57	3.03	0.71	2.52	2	0.61	2.62	0.74	2.16	2	0.48	248.48	0.73	179.8	15.1	24.6	5.3	14.6	288	1222	1672	15.2	24.6	186	2121	2	0.56	1.66	2	0.43	208.03	1706	5.3	14.6	189	2121	2	0.49	1.66	2	0.44	231.88	1929	4.4	32.7	-3.4	19.6	303	1221	2	0.53	2.87	2	0.58	2.48	2	0.37	166.66
"ISOKARR"	"Neotoma"	3165	4115	"Isokarret"	22.79906	60.2149	"Europe"	2412	4.4	24.2	-4.3	13	296	3625	2	0.65	1.99	0.82	1.41	2	0.72	1.9	0.84	1.44	1	0.37	320.47	0.75	203.98	12.6	20.2	0.6	7.9	475	919	1824	12.6	20.2	380	3568	2	0.59	1.08	1	0.41	309.86	1497	0.6	7.9	296	3625	2	0.59	1.36	1	0.42	343.57	1660	4.4	23.5	-4	12.2	476	917	2	0.68	1.47	2	0.8	1.55	1	0.27	87.44
"IVAN4"	"Neotoma"	1121	4116	"Ivanovskoye Peat Bog"	38.766667	56.816667	"Europe"	2661	6.8	26.7	-8.4	14.4	130	3625	2	0.66	2	0.84	1.38	2	0.74	2.27	0.85	1.69	1	0.28	264.98	0.73	164.03	15.9	20.3	3.6	8.4	619	759	1382	16	20.2	297	1204	2	0.5	0.74	2	0.51	77.02	1032	3.6	8.4	130	3625	2	0.61	0.85	2	0.52	276.67	775	9.2	23.1	-5.9	14.4	619	759	2	0.59	1.39	2	0.8	1.54	1	0.25	33.36
"IVAN5"	"Neotoma"	1121	4117	"Ivanovskoye Peat Bog"	38.766667	56.816667	"Europe"	2661	6.8	26.7	-8.4	14.4	130	3625	2	0.66	2	0.84	1.38	2	0.74	2.27	0.85	1.69	1	0.28	264.98	0.73	164.03	12.7	18.7	-0.7	4.5	554	831	1702	12.7	18.6	370	3568	2	0.45	1.13	1	0.36	235.85	1073	-0.7	4.5	261	3370	2	0.4	1.06	1	0.38	192.47	1477	8.2	23.8	-8.4	14.4	555	829	2	0.62	1.65	2	0.77	2.05	2	0.32	56.26
"JAN"	"Neotoma"	3166	4118	"Liptovsky Jan"	19.677778	49.041667	"Europe"	3039	4.4	28.7	-3.4	19.1	210	3625	2	0.59	2.56	0.78	1.9	2	0.68	2.28	0.81	1.76	1	0.27	320.83	0.71	201.26	9.8	20.1	1.2	8.1	386	1503	2328	9.9	20	381	3625	2	0.48	1.65	1	0.31	320.55	1677	1.2	8.1	296	3625	2	0.52	1.38	1	0.37	342.96	2799	4.4	28.7	-3.4	19.1	387	1503	2	0.58	2.57	2	0.69	2.29	1	0.36	203.33
"JASIEL81"	"Neotoma"	3167	4120	"Jasiel"	21.8875	49.3705	"Europe"	3096	4.4	30.8	-3.4	19.1	210	3625	2	0.58	2.7	0.77	1.99	2	0.68	2.34	0.81	1.78	1	0.26	318.24	0.72	197.81	10.8	18.4	0	10.5	746	1061	1971	10.9	18.4	451	3625	1	0.42	1.37	1	0.32	328.02	2427	0	10.5	271	3625	2	0.58	1.71	1	0.33	316.74	923	5.9	26.9	-2.6	19.1	746	1061	2	0.69	2.46	2	0.73	2.41	2	0.27	86.52
"JC-5-D_neotoma"	"Neotoma"	3171	4127	"Borkovicka blata"	14.62598	49.23475	"Europe"	3599	4.4	26.7	-3.4	18.2	210	3625	2	0.66	2.6	0.82	1.86	2	0.71	2.36	0.84	1.73	2	0.39	299.9	0.74	196.75	9.6	17.5	0.8	5	560	1158	1839	9.7	17.4	493	3625	1	0.4	1.6	1	0.27	350.55	725	0.9	5	493	3625	1	0.3	1.06	1	0.49	251.98	2257	4.4	26.7	-3.4	17.6	561	1157	2	0.56	2.41	2	0.7	2.2	2	0.37	134.83
"KAAKOTIN"	"Neotoma"	3177	4133	"Kaarkotinlampi"	25.86881	61.41513	"Europe"	2310	5.9	25	-8.4	13	271	3625	2	0.66	1.85	0.81	1.38	2	0.75	2.04	0.84	1.62	2	0.43	295.3	0.75	195.83	11.5	18.5	0	4.7	393	899	1774	11.5	18.4	380	3625	2	0.63	1.12	2	0.44	314.56	714	0	4.6	380	3370	1	0.4	1.14	1	0.29	212.32	1832	6	23.5	-8.4	12.2	395	899	2	0.68	1.56	2	0.78	1.95	1	0.27	89.03
"KAARTLAM"	"Neotoma"	3178	4134	"Kaartlamminsuo"	24.219825	60.738141	"Europe"	2353	4.4	24.2	-4.8	13	296	3625	2	0.66	1.94	0.83	1.36	2	0.73	1.88	0.85	1.4	2	0.43	301.86	0.76	196.86	12.5	19.1	0.1	6.1	378	1215	1708	12.6	19	380	3568	2	0.58	1.03	2	0.46	296.46	1077	0.1	6.1	380	3625	1	0.47	1.31	1	0.42	295.48	2000	4.4	23.5	-4.8	13	380	1215	2	0.68	1.9	2	0.77	1.78	2	0.42	129.46
"KALVEN"	"Neotoma"	3179	4135	"Kalven"	14.55571	56.53516	"Europe"	2959	4.4	25.8	-3.4	15.9	210	3625	2	0.56	2.44	0.77	1.74	2	0.69	2.24	0.84	1.63	1	0.29	325.55	0.73	199.79	12.3	16.2	0	3.8	505	973	884	12.4	16.1	380	3625	2	0.42	0.89	2	0.43	385.28	561	0	3.8	380	2935	1	0.15	0.93	1	0.54	233.33	1759	4.4	24.9	-3.4	15.9	506	970	2	0.53	1.91	2	0.74	1.81	1	0.23	101.05
"KANGERJ"	"Neotoma"	3180	4136	"Kangerjoki"	28.99524	66.12667	"Europe"	1844	3.5	22.3	-11.3	9.2	244	3625	2	0.68	1.78	0.82	1.34	2	0.69	2.37	0.8	1.92	2	0.39	273.84	0.73	182.38	8.8	16.3	-7.7	3.8	101	889	904	9.1	16.3	316	3625	1	0.51	1.32	2	0.5	330.64	978	-7.5	3.8	348	2935	1	0.48	2.02	1	0.24	202.05	1595	3.5	22.3	-11.3	9.2	244	888	2	0.67	1.61	2	0.7	2.38	1	0.24	88.84
"KARAMIK"	"Neotoma"	3181	4137	"Kararmik Batakligi"	30.8	38.425	"Europe"	1379	5.9	33.9	-2.4	23.1	51	2121	2	0.55	2.85	0.69	2.36	2	0.63	2.54	0.76	2.07	2	0.41	190.66	0.6	157.69	17.6	23.4	5.9	11.3	296	774	717	17.7	23.3	189	2121	1	0.47	1.35	1	0.23	177.68	707	5.9	11.3	151	1740	2	0.52	1.08	1	0.31	159.95	946	7.7	32.7	-1.1	19.3	296	773	2	0.48	2.54	2	0.61	2.13	1	0.28	85.93
"KARU"	"Neotoma"	3183	4139	"Lake Karujarv"	22.2	58.383333	"Europe"	2865	4.4	25.8	-4.3	15.8	210	3625	2	0.56	2.35	0.77	1.68	2	0.69	2.14	0.82	1.61	1	0.33	316.39	0.74	198.16	16	20.8	2.6	9.7	534	837	1394	16	20.7	480	1740	1	0.3	0.85	2	0.42	142.65	1816	2.6	9.7	271	3625	2	0.59	1.18	2	0.46	312.25	1424	4.4	24.9	-3.4	15.7	534	835	2	0.56	1.59	2	0.76	1.64	1	0.24	64.67
"KASTORIA"	"Neotoma"	3186	4142	"Lake Orestias"	21.322222	40.551944	"Europe"	2454	4.4	33.9	-3.4	23.1	51	2121	2	0.57	2.97	0.71	2.44	2	0.62	2.56	0.75	2.09	2	0.48	243.26	0.73	174.23	18.1	21	8.4	11.8	661	809	370	18.1	21	256	1582	1	0.29	0.72	1	0.23	162.09	672	8.4	11.8	380	1582	2	0.44	0.76	2	0.51	149.47	604	7.9	30.8	-0.8	16.9	661	809	2	0.58	1.96	2	0.72	1.74	1	0.17	39.61
"KAZGOLU"	"Neotoma"	3187	4143	"Kaz Golu"	36.15	40.283333	"Europe"	1489	8.6	33.9	-2.4	23.1	51	2121	2	0.51	2.83	0.69	2.25	2	0.67	2.47	0.79	1.97	1	0.36	181.22	0.63	138.9	16.8	23.3	5.2	11.7	349	735	982	16.8	23.3	189	2121	2	0.61	1.34	1	0.27	149.52	790	5.2	11.7	143	1582	2	0.54	1.25	1	0.37	120.02	976	10.2	30.8	1.8	18.6	363	734	2	0.54	2.11	2	0.72	1.79	2	0.43	65.36
"KEPSKOE"	"Neotoma"	3189	4145	"Kepskoe"	32.166667	65.083333	"Europe"	2016	3.5	24.2	-9.2	9.2	270	3625	2	0.67	1.8	0.81	1.36	2	0.68	2.36	0.79	1.92	2	0.38	263.64	0.73	174.05	10.8	17.6	-3.5	3.9	387	969	1382	10.9	17.6	316	3625	2	0.62	1.25	2	0.4	294.5	1012	-3.5	3.9	365	2935	1	0.36	1.41	2	0.41	173.53	1744	3.5	22.5	-8.4	9.2	388	966	2	0.66	1.59	2	0.7	2.17	1	0.24	88.91
"KHIMADIT"	"Neotoma"	3191	4147	"Khimaditis Ib"	21.599205	40.6279	"Europe"	2458	4.4	33.9	-3.4	23.1	51	2121	2	0.57	2.97	0.71	2.44	2	0.62	2.56	0.75	2.08	2	0.48	243.11	0.73	173.85	12.5	22	3.2	12.5	365	1024	1695	12.5	21.9	234	1934	2	0.43	1.5	2	0.46	229.13	1804	3.3	12.4	349	1934	2	0.47	1.5	2	0.5	221.85	1770	4.4	30.8	-3.4	19.6	369	1023	2	0.53	2.47	2	0.6	2.19	2	0.35	125.43
"KHIMAIII"	"Neotoma"	3192	4148	"Khimaditis III"	21.586111	40.6125	"Europe"	2458	4.4	33.9	-3.4	23.1	51	2121	2	0.57	2.97	0.71	2.44	2	0.62	2.56	0.75	2.08	2	0.48	243.11	0.73	173.85	17.9	22	8.6	12.2	604	788	542	17.9	22	234	1582	1	0.48	0.94	1	0.17	178.15	623	8.6	12.2	349	1582	2	0.41	0.84	2	0.49	153.52	795	7.7	30.8	-1.1	18.1	605	788	2	0.58	1.81	2	0.71	1.68	1	0.18	46.82
"KINGS"	"Neotoma"	3194	4150	"King's Pool"	-2.109	52.807895	"Europe"	2830	4.4	26.7	-3.4	18.2	210	3625	2	0.71	2.56	0.84	1.86	2	0.72	2.42	0.84	1.8	2	0.41	317.01	0.73	215.88	5.8	22.2	-2.2	13.7	608	1444	2317	5.9	22.2	315	3625	2	0.53	2.32	1	0.23	345.51	2335	-2.1	13.6	260	3625	2	0.59	2.18	1	0.24	349.36	1834	5.9	26	-2.6	17.8	608	1441	2	0.57	2.43	2	0.64	2.36	2	0.32	191.58
"KIRKKOSA"	"Neotoma"	3195	4151	"Kirkkosaari"	24.49056	60.857735	"Europe"	2346	4.4	24.2	-4.8	13	296	3625	2	0.66	1.94	0.83	1.35	2	0.73	1.87	0.85	1.39	2	0.43	302.14	0.76	196.98	8.7	20.7	-0.2	6.9	334	1581	2141	8.9	20.6	380	3625	2	0.64	1.5	1	0.37	320.96	1295	-0.2	6.9	314	3625	2	0.52	1.45	1	0.4	334.72	2219	4.4	23.5	-4.8	13	336	1575	2	0.66	1.94	2	0.74	1.87	1	0.47	198.31
"KLUK74"	"Neotoma"	3198	4154	"Kluki"	17.284722	54.706944	"Europe"	3115	4.4	26.7	-3.4	17.2	210	3625	2	0.6	2.48	0.78	1.81	2	0.72	2.27	0.84	1.69	1	0.29	321.21	0.73	197.81	13.3	20.4	2.3	9.4	629	1154	2016	13.4	20.3	444	3568	2	0.37	1.15	2	0.39	276.04	1880	2.3	9.4	363	3625	2	0.6	1.21	1	0.4	324.65	1671	5.9	25.9	-2.6	16.9	629	1152	2	0.61	2.37	2	0.73	2.13	1	0.33	127.23
"KOLMILAT"	"Neotoma"	3200	4156	"Lake Kolmilatrask"	20.14137	60.29171	"Europe"	2521	4.4	23.5	-4.8	13.7	363	3625	2	0.61	2.1	0.79	1.54	2	0.69	2.02	0.82	1.55	1	0.37	318.13	0.74	203.83	11.6	19.4	1	9	627	1007	1962	11.7	19.3	380	3625	2	0.6	1.2	1	0.39	326.09	1822	1	9	363	3625	2	0.61	1.42	1	0.42	326.4	1013	5.9	23.3	-2.6	13.6	628	1004	2	0.62	1.75	2	0.76	1.6	1	0.3	92.59
"KOYCEGIZ"	"Neotoma"	3203	4161	"Koycegiz Golu"	28.641667	36.875	"Europe"	1322	5.9	33.9	-2.4	23.1	51	2121	2	0.55	3.04	0.69	2.52	2	0.61	2.67	0.74	2.2	2	0.42	195.25	0.6	162.65	12	30.8	2.9	15.7	-3	1010	1222	12.1	30.8	81	2121	2	0.59	2.31	2	0.39	186.56	1137	3	15.7	189	2121	2	0.62	1.9	2	0.34	182.42	1191	5.9	33.9	-2.4	23.1	51	1010	2	0.52	2.97	2	0.6	2.6	2	0.49	131.76
"KRAGJR"	"Neotoma"	3204	4162	"Krageholmssjon"	13.74492	55.50078	"Europe"	3065	4.4	25.9	-3.4	17	210	3625	2	0.57	2.45	0.78	1.78	2	0.7	2.25	0.84	1.67	1	0.29	323.27	0.73	200.76	13.2	22.3	1.1	13.2	544	1042	2173	13.2	22.3	315	3568	2	0.36	1.42	2	0.36	287.68	2500	1.1	13.2	260	3625	2	0.6	1.78	1	0.3	329.46	1947	4.4	25.9	-3.4	16.9	545	1041	2	0.55	2.15	2	0.73	1.96	2	0.37	116.42
"KROGLO1"	"Neotoma"	3205	4163	"Krugloye"	37.58162	66.37107	"Europe"	2097	3.5	24.2	-10.4	8.8	270	3625	2	0.67	1.83	0.81	1.38	2	0.63	2.51	0.74	2.09	2	0.39	260.49	0.74	170.5	11.1	17.8	-4.7	1.9	281	531	1451	11.1	17.7	316	3625	2	0.6	1.25	1	0.34	302.91	859	-4.7	1.9	373	1870	1	0.24	1.34	2	0.44	139.96	599	3.5	24.2	-10.4	8.6	296	531	2	0.76	1.67	2	0.56	2.74	1	0.21	45.7
"KROKSJON"	"Neotoma"	3206	4164	"Kroksjon"	15.00843	56.27346	"Europe"	2975	4.4	25.9	-3.4	16.8	210	3625	2	0.57	2.45	0.78	1.75	2	0.69	2.24	0.84	1.63	1	0.29	325.08	0.73	199.38	11	16.6	-0.8	4.8	568	932	1288	11.1	16.5	380	3625	2	0.5	1.18	2	0.41	370.17	925	-0.8	4.8	380	3370	1	0.34	1.34	1	0.54	227.83	1467	6	25.9	-2.7	16.8	568	931	2	0.55	1.79	2	0.75	1.69	2	0.34	77.95
"KUCUK"	"Neotoma"	3209	4167	"Kucuk Akgol"	30.433333	40.866667	"Europe"	2040	4.4	33.9	-3.4	23.1	51	2121	2	0.6	2.98	0.74	2.38	2	0.66	2.58	0.78	2.06	2	0.48	239.3	0.74	167.91	14.9	25.9	4.8	17.3	384	1028	1627	15	25.8	130	2121	2	0.65	1.66	2	0.44	210.82	1561	4.8	17.2	118	2121	2	0.67	1.81	2	0.46	232.72	1544	4.4	30.8	-3.4	19.6	389	1028	2	0.54	2.45	2	0.65	2.21	1	0.32	112.58
"KUIVAJAR"	"Neotoma"	3210	4168	"Kuivajarvi"	23.85616	60.78455	"Europe"	2343	4.4	24.2	-4.8	13	296	3625	2	0.66	1.94	0.83	1.37	2	0.73	1.88	0.85	1.41	2	0.43	302.12	0.75	197.26	12.8	19.8	0.8	7.6	535	990	1744	12.8	19.7	380	3568	2	0.58	1.04	1	0.41	297.9	1328	0.8	7.6	296	3625	2	0.56	1.3	2	0.48	331	1499	4.4	23.5	-4	13	535	989	2	0.62	1.55	2	0.76	1.59	1	0.28	89.47
"KUNYOK"	"Neotoma"	3211	4169	"Kunyok"	33.666667	67.833333	"Europe"	1873	3.5	22.2	-11.3	8.8	244	3625	2	0.67	1.77	0.8	1.38	2	0.64	2.52	0.74	2.16	2	0.39	270.37	0.73	178.48	12.5	17.1	-3	0.7	363	874	997	12.5	17.1	348	3568	2	0.49	1.03	2	0.5	283.23	510	-3	0.7	380	1870	1	0.19	0.94	1	0.48	152.66	1603	3.5	22.2	-10.4	8.8	369	874	2	0.64	1.58	2	0.65	2.45	1	0.28	79.9
"KUPENA"	"Neotoma"	3212	4170	"Kupena"	24.333333	41.983333	"Europe"	2458	4.4	33.9	-3.4	23.1	51	2121	2	0.55	2.97	0.7	2.43	2	0.61	2.54	0.74	2.09	2	0.47	241.88	0.73	172.17	10.9	20.3	1.6	9.7	491	1198	1638	10.9	20.3	381	1934	1	0.34	1.54	1	0.45	232.04	1642	1.7	9.7	271	1934	2	0.47	1.43	2	0.53	225.32	1939	4.4	30.8	-3.4	19.6	494	1197	2	0.53	2.62	2	0.61	2.29	1	0.36	143.24
"KUPENA1"	"Neotoma"	3212	4171	"Kupena"	24.333333	41.983333	"Europe"	2458	4.4	33.9	-3.4	23.1	51	2121	2	0.55	2.97	0.7	2.43	2	0.61	2.54	0.74	2.09	2	0.47	241.88	0.73	172.17	14.2	21	3.9	9.7	309	991	1534	14.2	21	256	1934	1	0.26	1.25	1	0.41	221.97	1480	3.9	9.7	271	1934	1	0.45	1.13	2	0.54	218.18	1731	4.4	32.4	-3.4	19.6	313	989	2	0.47	2.53	2	0.6	2.19	1	0.21	122.5
"LACKAN1"	"Neotoma"	3214	4173	"Lackan Bog"	-6.10082	54.26583	"Europe"	2708	4.4	26.7	-3.4	18.2	210	3625	2	0.72	2.52	0.85	1.83	2	0.72	2.41	0.85	1.78	2	0.43	317.82	0.73	218.93	13.6	17.6	7.2	10.1	986	1528	1102	13.7	17.6	535	3568	1	0.23	0.85	2	0.34	300.94	895	7.2	10	485	2152	1	0.22	0.69	2	0.53	215.95	862	6.7	22	-2.5	14.9	986	1527	2	0.59	2.26	2	0.65	2.32	2	0.33	141.31
"LACKAN2"	"Neotoma"	3214	4174	"Lackan Bog"	-6.10082	54.26583	"Europe"	2708	4.4	26.7	-3.4	18.2	210	3625	2	0.72	2.52	0.85	1.83	2	0.72	2.41	0.85	1.78	2	0.43	317.82	0.73	218.93	8.4	18.5	0.9	12.2	891	1580	1764	8.5	18.5	485	3625	2	0.5	1.72	1	0.23	356.18	1962	0.9	12.2	349	3625	2	0.53	1.81	1	0.24	357.32	1036	5.9	23.6	-2.6	15	895	1578	2	0.58	2.3	2	0.64	2.35	1	0.23	171.87
"LALAX"	"Neotoma"	3221	4181	"Lalaxkarret"	21.860135	60.14759	"Europe"	2480	4.4	24	-4.3	13	296	3625	2	0.63	2.05	0.8	1.5	2	0.7	1.98	0.82	1.52	1	0.38	318.76	0.74	205.09	12.5	20.1	-0.4	7.3	193	1009	1869	12.5	20.1	380	3568	2	0.58	1.12	1	0.41	311.44	1547	-0.4	7.3	336	3625	2	0.53	1.56	1	0.41	339.19	1842	4.4	24	-4.3	13	296	1008	2	0.65	1.81	2	0.78	1.75	1	0.3	109.25
"LANDSH"	"Neotoma"	3223	4183	"Landshaftnoe"	30.533333	64.566667	"Europe"	2017	3.5	24.2	-9.2	9.9	270	3625	2	0.68	1.8	0.81	1.37	2	0.68	2.36	0.8	1.89	2	0.37	266.16	0.73	175.44	11.6	16.7	-3.1	3.3	337	779	940	11.7	16.7	348	3625	2	0.56	1.05	2	0.47	320.35	913	-3	3.3	380	2935	1	0.34	1.33	2	0.42	166.27	1659	3.5	23.2	-9.2	9.9	346	778	2	0.66	1.58	2	0.7	2.32	2	0.34	68
"LAROYA"	"Neotoma"	3224	4184	"Laguna de la Roya"	-6.793635	42.135515	"Europe"	2175	4.4	26.7	-3.4	18.2	210	2319	2	0.69	2.64	0.82	2.01	2	0.66	2.47	0.79	1.92	2	0.55	261.33	0.75	194.35	11	21	3.5	12.5	554	1313	1403	11.1	21	403	2319	2	0.38	1.67	2	0.37	273.1	1386	3.5	12.5	349	2319	2	0.4	1.46	2	0.4	277.6	1259	4.4	26.5	-3.4	18	555	1311	2	0.57	2.53	2	0.6	2.4	1	0.27	166.74
"LAUZE775"	"Neotoma"	3226	4186	"Col des Lauzes"	6.536944	44.767222	"Europe"	2996	4.4	26.7	-3.4	18.2	210	3625	2	0.69	2.66	0.83	1.94	2	0.69	2.5	0.83	1.84	2	0.42	310.16	0.74	206.66	8.2	22.7	0.2	12.1	113	1726	2302	8.3	22.6	260	3625	2	0.51	2.17	1	0.25	346.53	2093	0.2	12.1	349	3625	2	0.47	1.88	1	0.27	348.53	2903	4.4	26.7	-3.4	18.2	210	1717	2	0.69	2.69	2	0.69	2.53	2	0.48	240.12
"LAVAU"	"Neotoma"	3227	4187	"Lavau"	-1.934167	47.341944	"Europe"	2714	4.4	26.7	-3.4	18.2	210	3625	2	0.71	2.57	0.84	1.89	2	0.71	2.46	0.84	1.82	2	0.42	317.28	0.73	217.21	13.6	25.5	4.7	17.4	274	1537	2046	13.6	25.5	210	3568	2	0.7	1.84	2	0.44	280.99	2173	4.7	17.4	210	3625	2	0.69	1.75	2	0.46	312.28	2511	4.4	26.7	-3.4	18.1	290	1532	2	0.71	2.6	2	0.71	2.46	2	0.49	225.85
"LAVIE"	"Neotoma"	3228	4188	"La Vie"	-0.258333	48.548333	"Europe"	2868	4.4	26.7	-3.4	18.2	210	3625	2	0.7	2.61	0.84	1.91	2	0.71	2.46	0.84	1.82	2	0.41	316.99	0.73	215.1	8.5	20.6	1	12.4	776	1325	2048	8.5	20.5	444	3625	2	0.49	1.91	1	0.22	353.48	2079	1	12.4	349	3625	2	0.51	1.88	1	0.23	355.07	1119	5.9	24.6	-2.6	15.8	777	1325	2	0.6	2.56	2	0.67	2.45	1	0.13	136.86
"LBA"	"Neotoma"	3229	4189	"Lade Bank"	0.08387	53.06966	"Europe"	2909	4.4	26.7	-3.4	18.2	210	3625	2	0.7	2.54	0.84	1.85	2	0.72	2.4	0.85	1.78	2	0.4	317.52	0.73	215.24	18.2	23.5	9.3	15.4	513	1047	496	18.3	23.4	210	1556	1	0.36	1.29	1	0.26	204.78	813	9.4	15.3	210	1774	2	0.59	1.25	2	0.65	181.32	1647	4.4	26.6	-3.4	18	513	1046	2	0.66	2.2	2	0.75	2.08	1	0.29	130.63
"LEDN86"	"Neotoma"	3231	4192	"Lake Lednica"	17.38084	52.54901	"Europe"	3209	4.4	26.7	-3.4	17.6	210	3625	2	0.6	2.48	0.78	1.82	2	0.71	2.27	0.83	1.72	1	0.29	318.97	0.72	198.47	13.3	22.5	1.5	12.7	632	997	2309	13.4	22.4	260	3568	2	0.46	1.49	2	0.35	277.21	2508	1.5	12.7	315	3625	2	0.61	1.67	1	0.31	327.73	1317	5.9	25.9	-2.6	16.9	632	996	2	0.59	2.16	2	0.75	1.94	1	0.2	94.45
"LEMPS83"	"Neotoma"	3233	4197	"Le Grand Lemps"	5.416667	45.473333	"Europe"	2933	4.4	26.7	-3.4	18.2	210	3625	2	0.69	2.65	0.83	1.94	2	0.69	2.49	0.83	1.84	2	0.42	313.37	0.73	212.51	12.3	22.7	4.6	14.2	619	1678	2027	12.3	22.7	260	3625	2	0.47	1.76	1	0.26	344.99	2003	4.7	14.1	260	3625	2	0.56	1.51	1	0.3	343.61	1982	5.9	25.9	-2.6	17.4	620	1670	2	0.57	2.49	2	0.62	2.39	2	0.31	228.03
"LEMPS85"	"Neotoma"	3233	4198	"Le Grand Lemps"	5.416667	45.473333	"Europe"	2933	4.4	26.7	-3.4	18.2	210	3625	2	0.69	2.65	0.83	1.94	2	0.69	2.49	0.83	1.84	2	0.42	313.37	0.73	212.51	13.8	23.4	5.4	15.6	662	1534	1919	13.9	23.4	210	3059	2	0.51	1.64	2	0.34	280.85	2226	5.4	15.6	210	3568	2	0.66	1.68	2	0.44	303.02	1740	5.9	25.9	-2.6	17.4	662	1532	2	0.57	2.52	2	0.62	2.44	2	0.29	205.05
"LEMPS86"	"Neotoma"	3233	4199	"Le Grand Lemps"	5.416667	45.473333	"Europe"	2933	4.4	26.7	-3.4	18.2	210	3625	2	0.69	2.65	0.83	1.94	2	0.69	2.49	0.83	1.84	2	0.42	313.37	0.73	212.51	8.9	22.6	-0.7	13.9	321	1460	2249	8.9	22.6	260	3625	2	0.49	2.14	1	0.25	349.37	2336	-0.7	13.9	260	3625	2	0.56	2.07	1	0.26	347.15	2654	4.4	26.7	-3.4	18	330	1459	2	0.68	2.67	2	0.7	2.47	2	0.46	216.53
"LGLOPPSJ"	"Neotoma"	3234	4200	"Lilla Gloppsjon"	14.623333	59.801667	"Europe"	2639	4.4	25.1	-4	15.8	210	3625	2	0.56	2.16	0.76	1.58	2	0.67	2.12	0.83	1.54	1	0.31	326.92	0.74	202.81	13.8	20.4	1.7	7.3	582	795	1806	13.9	20.3	467	3059	2	0.37	1.03	2	0.43	252.05	1194	1.7	7.3	487	3625	2	0.44	1.2	1	0.42	352.09	1010	7.7	24.4	-2.7	15.7	583	795	2	0.63	1.25	2	0.78	1.43	1	0.23	50.07
"LIGNIN1"	"Neotoma"	3235	4201	"Lignin Lake"	6.708611	44.104167	"Europe"	2959	4.4	26.7	-3.4	18.2	210	3625	2	0.69	2.66	0.83	1.96	2	0.69	2.51	0.83	1.85	2	0.42	308.2	0.74	207.5	12.3	18.5	4.3	9.3	317	1452	1484	12.3	18.4	499	3625	1	0.29	1.24	1	0.27	354.32	1347	4.3	9.3	485	3625	1	0.35	0.97	1	0.34	344.93	2650	4.4	26.7	-3.4	18	330	1449	2	0.68	2.7	2	0.69	2.5	2	0.45	210.29
"LIIVJARV"	"Neotoma"	3236	4203	"Liivjarve Bog"	27.57509	59.30546	"Europe"	2500	4.4	25.1	-4.5	15.8	271	3625	2	0.64	1.99	0.82	1.39	2	0.72	1.88	0.84	1.42	2	0.42	290.55	0.75	191.05	11.7	20.6	-0.9	7.3	324	1166	2051	11.7	20.6	380	3625	2	0.58	1.25	2	0.42	295.03	1699	-0.9	7.3	314	3625	2	0.59	1.56	2	0.46	305.2	2185	4.4	23.7	-4.5	13	327	1162	2	0.65	1.94	2	0.76	1.8	2	0.43	121.19
"LILLSJON"	"Neotoma"	3238	4205	"Lillsjon"	12.533333	57.083333	"Europe"	2951	4.4	25.8	-3.4	15.9	210	3625	2	0.54	2.43	0.77	1.74	2	0.68	2.27	0.83	1.65	1	0.29	325.98	0.73	201.15	10.9	16.6	-0.5	4.9	523	783	1323	11	16.5	380	3625	2	0.51	1.2	2	0.4	367.95	895	-0.5	4.9	380	3370	1	0.33	1.3	1	0.54	227.61	1292	4.4	24.9	-3.4	15.9	524	782	2	0.57	1.59	2	0.76	1.64	1	0.15	59.83
"LJUNGSJ"	"Neotoma"	3240	4207	"Ljungsjon"	13.33269	57.73429	"Europe"	2822	4.4	25.8	-3.4	15.9	210	3625	2	0.54	2.32	0.75	1.71	2	0.67	2.19	0.82	1.62	1	0.3	324.75	0.73	202.18	11.5	15.9	-0.6	4.1	590	849	822	11.6	15.8	380	3625	2	0.47	0.96	2	0.44	403.31	673	-0.5	4.1	380	3370	1	0.2	1.13	1	0.52	243.2	1173	6	24.7	-2.7	15.9	591	849	2	0.55	1.64	2	0.75	1.6	1	0.28	60.43
"LLDR1_neotoma"	"Neotoma"	3242	4209	"Loch Lomond Ross Dubh"	-4.6259	56.148125	"Europe"	2707	4.4	26.2	-8.1	17.3	210	3625	2	0.71	2.41	0.85	1.72	2	0.74	2.27	0.86	1.66	2	0.39	325.15	0.72	219.77	13.3	19.7	4.8	11.9	548	1501	1604	13.3	19.6	483	3568	2	0.35	1.14	2	0.34	309.24	1594	4.8	11.9	378	3625	2	0.46	1.19	1	0.29	356.01	1980	4.4	26.1	-3.4	16.9	548	1500	2	0.57	2.28	2	0.63	2.24	2	0.39	204.16
"LLONG1"	"Neotoma"	3244	4211	"Lac Long Inferieur"	7.45	44.057778	"Europe"	2978	4.4	26.7	-3.4	18.2	210	3625	2	0.69	2.67	0.83	1.95	2	0.68	2.52	0.83	1.85	2	0.42	308.41	0.74	207.33	9.8	23.4	2.2	12.2	80	1698	2338	9.8	23.4	210	3625	2	0.53	2.16	1	0.27	341.37	1963	2.2	12.2	349	3625	1	0.38	1.71	1	0.28	351.66	2882	4.4	26.7	-3.4	18.2	210	1686	2	0.68	2.7	2	0.68	2.54	2	0.49	238.52
"LOBHOLO"	"Neotoma"	3245	4213	"Lobsigensee"	7.299167	47.031944	"Europe"	3163	4.4	26.7	-3.4	18.2	210	3625	2	0.69	2.64	0.84	1.91	2	0.7	2.47	0.84	1.82	2	0.4	309.2	0.73	207.45	10.8	22.6	-0.7	14.5	383	1439	2303	10.8	22.6	260	3625	2	0.51	1.87	1	0.23	347.91	2684	-0.6	14.5	210	3625	2	0.64	2.09	2	0.34	322.24	2721	4.4	26.7	-3.4	18	384	1439	2	0.66	2.67	2	0.7	2.46	2	0.41	204.94
"LOCMAR"	"Neotoma"	3247	4215	"Locmariaquer"	-2.932222	47.554444	"Europe"	2691	4.4	26.7	-3.4	18.2	210	3625	2	0.71	2.57	0.85	1.89	2	0.71	2.46	0.84	1.82	2	0.43	317.84	0.73	217.88	15.2	24.8	7.8	16.4	474	1308	1617	15.3	24.7	210	1842	2	0.61	1.59	2	0.39	239.52	1459	7.8	16.4	210	2085	2	0.67	1.52	2	0.6	194.07	1834	4.4	26.7	-3.4	18	475	1308	2	0.65	2.48	2	0.69	2.4	2	0.32	172.19
"LOGNE"	"Neotoma"	3248	4216	"Logne"	-1.501111	47.328333	"Europe"	2753	4.4	26.7	-3.4	18.2	210	3625	2	0.71	2.58	0.84	1.89	2	0.71	2.46	0.84	1.81	2	0.42	316.11	0.73	216.23	9.5	22.4	4.6	14.2	445	1745	2067	9.6	22.3	315	3625	2	0.51	1.98	1	0.23	354.58	1858	4.6	14.2	210	3625	2	0.57	1.49	2	0.38	328.2	2304	4.4	26.7	-3.4	18	445	1744	2	0.62	2.54	2	0.66	2.42	2	0.36	246.53
"LUGAN"	"Neotoma"	3255	4223	"Luganskoe"	40.70077	43.72186	"Europe"	1593	8.6	33.9	-2.4	23.1	51	2121	2	0.47	2.88	0.68	2.24	2	0.71	2.65	0.83	2.05	1	0.39	165.01	0.65	125.27	13.9	20.3	2.7	7.2	515	844	891	13.9	20.3	346	1293	1	0.28	1.08	1	0.31	85.8	537	2.7	7.2	170	1511	2	0.4	0.84	2	0.55	103.7	1083	10.2	30.8	-1.3	18.1	516	836	2	0.54	2	2	0.78	1.86	1	0.34	59.41
"LUTIN"	"Neotoma"	3257	4225	"Lutiniere"	-0.862222	46.444444	"Europe"	2797	4.4	26.7	-3.4	18.2	210	3625	2	0.7	2.62	0.84	1.93	2	0.7	2.48	0.84	1.83	2	0.42	314.87	0.73	215.6	13.9	23.2	5.6	14.4	399	1140	1784	13.9	23.2	260	3059	2	0.5	1.57	2	0.33	284.38	1877	5.6	14.4	210	3568	2	0.59	1.5	2	0.4	311.77	1967	4.4	26.7	-3.4	18	399	1139	2	0.68	2.56	2	0.7	2.41	2	0.37	164.05
"LUXBREID"	"Neotoma"	3260	4228	"Breidfeld"	6.063056	50.122778	"Europe"	3202	4.4	26.7	-3.4	18.2	210	3625	2	0.68	2.63	0.83	1.89	2	0.71	2.44	0.84	1.79	2	0.39	310.84	0.73	208.27	14.5	20.5	4.8	12.3	758	973	1760	14.5	20.5	444	2252	2	0.36	1.06	2	0.35	254.99	1868	4.8	12.3	349	3625	1	0.42	1.39	1	0.28	347.66	582	6	25.9	-2.6	16.8	758	970	2	0.62	2.13	2	0.71	2.02	1	0.14	56.72
"MAANSEL"	"Neotoma"	3264	4239	"Maanselansuo"	29.61124	65.61709	"Europe"	1887	3.5	23.2	-9.2	9.2	270	3625	2	0.68	1.78	0.82	1.34	2	0.68	2.37	0.8	1.9	2	0.39	271.1	0.73	180.35	8.7	17.1	-5.7	4.1	403	900	1140	8.7	17	316	3625	2	0.59	1.34	2	0.44	317.87	964	-5.6	4.1	380	3370	1	0.4	1.62	2	0.35	198.35	1587	3.5	22.5	-8.4	9.2	404	897	2	0.67	1.55	2	0.72	2.11	1	0.24	80.59
"MAARDUI"	"Neotoma"	3265	4241	"Lake Maardu"	25	59.433333	"Europe"	2477	4.4	25.1	-4.3	15.8	271	3625	2	0.63	2.01	0.82	1.42	2	0.71	1.92	0.84	1.43	1	0.37	318.47	0.74	203.53	15.3	20.8	1.2	9.8	412	855	1429	15.4	20.6	483	1842	1	0.44	0.83	2	0.49	186.06	1826	1.2	9.8	271	3625	2	0.64	1.39	2	0.49	308.71	1692	4.4	23.5	-4.3	12.2	416	854	2	0.64	1.62	2	0.79	1.69	1	0.23	81.05
"MALESH"	"Neotoma"	3270	4247	"Maleshevska Mountains Peat Bog"	23.033333	41.7	"Europe"	2515	4.4	33.9	-3.4	23.1	51	2121	2	0.56	2.95	0.71	2.41	2	0.62	2.54	0.75	2.06	2	0.48	241.63	0.73	171.8	14	19.3	4.8	10.4	528	1395	1383	14.1	19.3	439	1934	1	0.27	0.94	2	0.51	206.7	1463	4.8	10.3	271	1934	1	0.34	1.16	2	0.52	218.11	1978	4.4	30.8	-3.4	19.6	528	1393	2	0.54	2.63	2	0.61	2.32	1	0.38	166.09
"MARCH"	"Neotoma"	3272	4249	"Hobbs Lot March"	0.07036	52.58592	"Europe"	2878	4.4	26.7	-3.4	18.2	210	3625	2	0.7	2.55	0.84	1.86	2	0.72	2.4	0.84	1.79	2	0.41	316.63	0.73	215.85	13.3	23.3	4.7	14.8	530	1177	1933	13.3	23.3	260	3568	2	0.52	1.54	2	0.32	312.74	2066	4.7	14.8	210	3625	2	0.67	1.57	2	0.42	323	1799	4.4	26.5	-3.4	18	530	1177	2	0.62	2.41	2	0.71	2.26	1	0.3	149.11
"MAREE_neotoma"	"Neotoma"	3273	4251	"Loch Maree"	-5.453995	57.68456	"Europe"	2551	4.4	26.2	-8.1	17	330	3625	2	0.67	2.38	0.83	1.73	2	0.72	2.25	0.85	1.67	2	0.36	329.86	0.71	223.98	8.2	16.9	-2	8.8	758	1537	1410	8.3	16.8	380	3625	2	0.53	1.56	1	0.21	384.12	1730	-2	8.8	380	3625	2	0.61	1.81	1	0.34	340.48	1358	5.9	23.3	-2.6	14.9	759	1532	2	0.57	2.29	2	0.63	2.34	2	0.27	189.48
"MARTIGAN"	"Neotoma"	3276	4256	"Lago di Martignano"	12.317055	42.11301	"Europe"	2933	4.4	26.7	-3.4	18.2	210	2493	2	0.66	2.57	0.81	1.95	2	0.65	2.4	0.79	1.84	2	0.48	261.78	0.75	180.27	16.8	21.8	7.9	13.1	530	903	1028	16.8	21.7	349	1740	2	0.52	1	1	0.28	182.15	1180	7.9	13.1	315	1774	1	0.42	1.12	2	0.51	186.32	1295	4.4	26.7	-3.4	18	531	902	2	0.62	1.99	2	0.66	1.94	2	0.29	87.69
"MASEHJ"	"Neotoma"	3277	4257	"Masehjavri"	20.97475	69.04527	"Europe"	1510	0.4	19.7	-16.3	9.3	210	3625	2	0.69	1.73	0.8	1.4	2	0.71	2.29	0.79	1.99	2	0.44	301.31	0.72	211.67	8.7	15.4	-6.5	3.7	360	871	659	9.1	15.3	316	3625	1	0.32	1.22	1	0.51	388.27	763	-6.4	3.7	380	2935	2	0.52	1.69	2	0.36	200.5	1200	3.5	19.7	-8.4	9.2	369	870	2	0.69	1.51	2	0.73	2.13	1	0.27	79.24
"MAT-1"	"Neotoma"	3278	4258	"Vitosha Mountains Peat Bog"	23.291696	42.547182	"Europe"	2588	4.4	33.9	-3.4	23.1	51	2121	2	0.56	2.93	0.71	2.38	2	0.63	2.51	0.75	2.04	2	0.47	241.06	0.74	169.83	13.4	17.6	5	7	556	1159	1092	13.4	17.5	451	1934	1	0.28	0.79	1	0.47	232.37	451	5	7	336	1934	1	0.28	0.49	1	0.47	262.21	1805	4.4	30.8	-3.4	19.6	556	1155	2	0.51	2.53	2	0.61	2.26	1	0.36	134.29
"MAYRA"	"Neotoma"	3279	4259	"Mayralampi"	26.23393	62.34206	"Europe"	2307	4.1	24.2	-9.1	11.2	270	3625	2	0.66	1.8	0.81	1.36	2	0.74	2.13	0.83	1.71	2	0.41	297.44	0.74	196.11	14	19.4	0.1	10.1	130	2152	1564	14.1	19.3	442	2668	2	0.47	0.86	2	0.46	229.54	1826	0.1	10.1	296	3625	2	0.74	1.37	2	0.46	302.75	2281	4.1	24.2	-9.1	11.2	270	2152	2	0.66	1.81	2	0.74	2.13	2	0.44	241.62
"MLOUKY"	"Neotoma"	3289	4269	"Mokre louky (South)"	14.77806	49.00223	"Europe"	3610	4.4	26.7	-3.4	18.2	210	3625	2	0.65	2.6	0.82	1.87	2	0.71	2.36	0.84	1.73	2	0.39	300.18	0.74	197.08	10.9	18.5	2.2	7.5	656	1437	2094	10.9	18.5	451	3625	1	0.38	1.43	1	0.29	337.5	1299	2.2	7.5	451	3625	2	0.46	1.09	1	0.38	361.3	1851	5.9	25.9	-2.6	16.9	656	1437	2	0.57	2.55	2	0.66	2.38	2	0.32	176.25
"MOERZEKE"	"Neotoma"	3292	4272	"Moerzeke"	4.176389	51.048333	"Europe"	3170	4.4	26.7	-3.4	18.2	210	3625	2	0.68	2.61	0.84	1.87	2	0.71	2.41	0.84	1.77	2	0.4	310.49	0.73	209.21	14.5	23.4	5.4	13.3	679	955	2026	14.6	23.3	260	2252	2	0.52	1.49	2	0.35	256.99	1844	5.4	13.3	260	3568	2	0.51	1.39	1	0.3	332.65	865	6	25.9	-2.6	17.4	680	954	2	0.59	2.1	2	0.72	1.95	1	0.14	72.15
"MONT82"	"Neotoma"	3295	4275	"Lago Grande di Monticchio"	15.605185	40.931235	"Europe"	2875	4.4	28.7	-3.4	19.6	210	1934	2	0.66	2.61	0.8	2.01	2	0.65	2.42	0.79	1.88	2	0.48	247.03	0.72	181.46	12.4	26.3	3.2	17.8	218	1610	2580	12.5	26.2	210	1934	2	0.67	2.06	2	0.47	240.54	2602	3.3	17.8	210	1934	2	0.65	1.93	2	0.46	241.5	2826	4.4	28.7	-3.4	19.6	229	1609	2	0.66	2.62	2	0.65	2.43	2	0.47	231.41
"MORRONE"	"Neotoma"	3296	4279	"Morrone Birkwoods"	-3.4325	56.9975	"Europe"	2745	4.4	26.2	-8.1	17.3	210	3625	2	0.7	2.38	0.84	1.71	2	0.74	2.26	0.86	1.66	2	0.38	324.7	0.72	218.35	5.1	16.2	-2.4	7.3	875	1561	1294	5.3	16.2	380	3625	2	0.53	1.87	1	0.22	381.93	1300	-2.4	7.3	380	3625	2	0.6	1.8	2	0.35	353.16	1078	5.9	23.3	-2.6	14.9	876	1560	2	0.58	2.27	2	0.64	2.3	2	0.25	169.76
"MOSSEN"	"Neotoma"	3299	4283	"Mossen"	21.58979	60.12146	"Europe"	2483	4.4	24	-4.3	13	296	3625	2	0.63	2.05	0.8	1.5	2	0.7	1.98	0.82	1.52	1	0.38	318.48	0.74	205.14	10.2	19	2	6.5	491	1277	2079	10.2	19	380	3625	2	0.62	1.38	2	0.43	314.38	917	2	6.5	428	3625	1	0.28	1.06	1	0.46	351.58	1959	4.4	23.5	-4	13	491	1274	2	0.64	2.02	2	0.73	1.87	1	0.42	141.77
"MOUTON2"	"Neotoma"	3301	4285	"Lac Mouton"	7.444722	44.057778	"Europe"	2978	4.4	26.7	-3.4	18.2	210	3625	2	0.69	2.67	0.83	1.95	2	0.68	2.52	0.83	1.85	2	0.42	308.41	0.74	207.33	9.3	20.6	1.3	10.1	344	1767	2006	9.3	20.5	444	3625	2	0.46	1.87	1	0.25	346.44	1763	1.3	10.1	410	3625	2	0.47	1.56	1	0.31	340.38	2849	4.4	26.7	-3.4	18	344	1762	2	0.68	2.69	2	0.68	2.49	2	0.46	245.75
"MUKKAV"	"Neotoma"	3302	4286	"Mukkavaara"	21	68.916667	"Europe"	1511	0.4	19.7	-16.3	9.3	210	3625	2	0.69	1.73	0.8	1.4	2	0.71	2.29	0.79	1.99	2	0.45	301.59	0.73	211.81	9.9	15.3	-2.8	2	365	873	641	9.9	15.3	316	3625	2	0.46	1.02	1	0.53	388.28	529	-2.7	2	380	1870	1	0.31	1.1	1	0.49	153.49	1200	3.5	19.7	-8.4	9.2	369	870	2	0.69	1.51	2	0.73	2.13	1	0.27	79.24
"MULLSJ"	"Neotoma"	3303	4287	"Lake Mullsjon"	14.21136	58.31761	"Europe"	2747	4.4	25.1	-3.4	15.9	210	3625	2	0.56	2.22	0.76	1.64	2	0.67	2.14	0.82	1.57	1	0.31	324.76	0.73	202.99	12.3	17	0.2	5.3	480	861	1256	12.4	16.9	380	3625	2	0.43	0.98	2	0.42	353.64	924	0.2	5.3	380	3625	1	0.33	1.22	1	0.48	263.41	1539	4.4	24.7	-3.4	15.9	481	859	2	0.64	1.61	2	0.79	1.66	1	0.22	79.3
"MUSTUSUO"	"Neotoma"	3304	4288	"Mustusuo"	33.5	61.805556	"Europe"	2313	6	26.6	-9.2	11.5	151	3625	2	0.69	1.79	0.83	1.32	2	0.7	2.28	0.82	1.78	2	0.37	254.52	0.74	164.46	10.9	17.7	-4.9	5.1	351	784	1549	11	17.7	316	3625	2	0.61	1.22	2	0.39	281.89	1407	-4.8	5.1	310	3625	2	0.53	1.55	1	0.26	206.01	1872	6	23.5	-8.4	11.5	351	784	2	0.68	1.57	2	0.71	2.23	1	0.33	75.29
"NASLAT"	"Neotoma"	3308	4293	"Slieve Naslat"	-5.95509	54.27048	"Europe"	2736	4.4	26.7	-3.4	18.2	210	3625	2	0.72	2.51	0.85	1.82	2	0.72	2.4	0.85	1.77	2	0.42	317.93	0.73	218.65	10.7	20.4	5	12.2	769	1981	1870	10.7	20.3	444	3625	2	0.49	1.58	1	0.23	358.83	1574	5.1	12.2	349	3568	2	0.46	1.19	1	0.29	351.68	1499	5.9	24.6	-2.6	15.5	769	1943	2	0.58	2.28	2	0.62	2.33	1	0.17	254.83
"NAVA1"	"Neotoma"	3309	4294	"Navarres"	-0.683333	39.1	"Europe"	2251	4.4	26.7	-3.4	18.2	210	2235	2	0.67	2.7	0.81	2.07	2	0.66	2.5	0.79	1.95	2	0.53	254.76	0.74	188.16	15.2	22.5	6.2	13.8	493	972	1248	15.3	22.4	260	1842	2	0.48	1.38	2	0.36	239.14	1376	6.2	13.7	260	2235	2	0.52	1.38	2	0.42	257.38	972	4.4	26.7	-3.4	18	494	970	2	0.62	2.13	2	0.64	2.03	2	0.33	108.25
"NAVARRE3"	"Neotoma"	3309	4296	"Navarres"	-0.683333	39.1	"Europe"	2251	4.4	26.7	-3.4	18.2	210	2235	2	0.67	2.7	0.81	2.07	2	0.66	2.5	0.79	1.95	2	0.53	254.76	0.74	188.16	12.9	25.3	4.1	15.9	175	1185	1782	12.9	25.2	210	1934	2	0.63	2.03	2	0.49	255.37	1888	4.1	15.9	210	2235	2	0.63	1.86	2	0.52	253.62	1829	4.4	26.7	-3.4	18.2	210	1185	2	0.66	2.65	2	0.64	2.47	2	0.5	177.2
"NEMINO"	"Neotoma"	3312	4299	"Nemino"	34.583333	62.75	"Europe"	2331	4.1	26.2	-9.2	11.5	173	3625	2	0.69	1.8	0.83	1.32	2	0.69	2.33	0.81	1.84	2	0.37	253.97	0.74	163.93	10.8	17.1	-2.9	4.2	538	920	1313	10.9	17.1	316	3625	2	0.61	1.18	2	0.41	299.51	1197	-2.9	4.2	322	3370	2	0.47	1.35	2	0.37	185.72	1468	6.1	20.4	-8.4	9.6	538	917	2	0.62	1.45	2	0.75	1.91	1	0.29	72.53
"NERO2"	"Neotoma"	3314	4301	"Lake Nero"	39.451389	57.183333	"Europe"	2658	6.8	26.7	-8.4	14.4	130	3625	2	0.67	1.97	0.84	1.38	2	0.73	2.3	0.84	1.77	1	0.29	263.53	0.73	163.39	13.4	24	-4.6	14	53	1003	2079	13.5	23.8	242	3568	2	0.65	1.28	1	0.36	192.05	2493	-4.5	13.9	130	3625	2	0.73	1.95	1	0.29	267.68	2462	6.8	26.7	-8.4	14.4	130	1001	2	0.66	1.89	2	0.74	2.3	1	0.36	110.95
"NERO2P"	"Neotoma"	3314	4304	"Lake Nero"	39.451389	57.183333	"Europe"	2658	6.8	26.7	-8.4	14.4	130	3625	2	0.67	1.97	0.84	1.38	2	0.73	2.3	0.84	1.77	1	0.29	263.53	0.73	163.39	16	21.2	2.3	10.3	563	791	1454	16	21.1	284	1015	1	0.46	0.87	2	0.55	73.43	1375	2.3	10.2	130	3625	2	0.59	1.28	2	0.5	269.35	1328	8.2	23.8	-8.4	14.4	564	791	2	0.65	1.55	2	0.78	2.03	2	0.35	47.23
"NIE1BIS"	"Neotoma"	3315	4306	"Niechorze"	15.05	54	"Europe"	3184	4.4	26.7	-3.4	17.3	210	3625	2	0.59	2.47	0.77	1.84	2	0.72	2.28	0.84	1.73	1	0.28	320.28	0.72	200.2	9.8	19.4	-1.8	9.9	609	905	2554	9.8	19.4	380	3625	2	0.52	1.64	2	0.37	312.67	2548	-1.8	9.9	380	3625	2	0.65	1.81	1	0.35	318.02	1311	6	25.9	-2.7	16.9	610	904	2	0.6	1.82	2	0.78	1.71	2	0.29	71.33
"NIGULA"	"Neotoma"	3316	4308	"Nigula"	24.68735	58.00009	"Europe"	2841	4.4	25.8	-4.3	15.8	210	3625	2	0.62	2.29	0.79	1.68	2	0.72	2.15	0.84	1.65	1	0.34	313.54	0.74	198.46	11.6	19.5	-0.1	9.6	83	1241	2135	11.6	19.5	380	3625	2	0.56	1.31	1	0.35	326.57	2150	-0.1	9.6	271	3625	2	0.62	1.63	1	0.39	324.25	2423	4.4	25.8	-4.3	15.7	210	1239	2	0.63	2.29	2	0.76	2.09	1	0.36	151.08
"NMADBER"	"Neotoma"	3317	4309	"Madtjarn"	12.17463	58.5959	"Europe"	2725	4.4	25.1	-3.4	15.8	210	3625	2	0.55	2.19	0.76	1.6	2	0.66	2.14	0.83	1.54	1	0.31	324.89	0.73	202.95	11.4	17.2	0.8	5.3	531	845	1671	11.4	17.2	380	3625	2	0.53	1.16	2	0.41	338.17	848	0.9	5.3	493	3625	1	0.29	1.14	1	0.48	266.69	1334	4.4	24.6	-3.4	15.7	531	844	2	0.6	1.51	2	0.75	1.61	1	0.24	67.62
"NOIR01"	"Neotoma"	3319	4311	"Lac Noir"	2.622778	45.451944	"Europe"	2872	4.4	26.7	-3.4	18.2	210	3625	2	0.7	2.65	0.83	1.95	2	0.7	2.48	0.83	1.84	2	0.42	313.92	0.74	209.87	10.2	22.5	1.2	14.7	399	1502	2068	10.3	22.4	260	3625	2	0.45	1.95	1	0.24	354.23	2400	1.2	14.7	210	3625	2	0.62	2.02	2	0.39	325.44	2425	4.4	26.7	-3.4	18	400	1501	2	0.65	2.68	2	0.68	2.47	2	0.39	223.05
"NOVOLSK_neotoma"	"Neotoma"	3322	4314	"Novoselky"	25.999186	53.263461	"Europe"	3269	4.4	29.5	-3.4	17.6	151	3625	2	0.58	2.57	0.78	1.88	2	0.71	2.27	0.83	1.74	1	0.28	310.26	0.72	193.02	14.1	22	-2	9.4	190	927	2151	14.1	22	315	2668	2	0.45	1.3	1	0.31	246.87	2550	-2	9.4	151	3625	2	0.65	1.84	1	0.34	316.24	2342	4.4	29.5	-3.4	17.6	210	926	2	0.62	2.17	2	0.78	2.06	1	0.25	106.76
"OLBRAM"	"Neotoma"	3327	4319	"Olbramovice"	16.392795	48.98832	"Europe"	3484	4.4	26.7	-3.4	18	210	3625	2	0.65	2.59	0.82	1.82	2	0.71	2.32	0.85	1.67	2	0.39	302.06	0.74	196.12	14.9	20.5	5.7	9.5	528	1146	1957	15	20.4	381	2252	2	0.37	1.02	2	0.39	227.58	1287	5.7	9.5	403	3568	1	0.32	0.83	1	0.36	325.94	2307	4.4	26.7	-3.4	17.6	529	1145	2	0.56	2.4	2	0.7	2.16	1	0.33	140.26
"OLTUSH"	"Neotoma"	3328	4320	"Oltush Lake"	23.956667	51.696667	"Europe"	3179	4.4	30.8	-3.4	18.6	210	3625	2	0.57	2.66	0.76	1.99	2	0.7	2.31	0.82	1.8	1	0.28	315.61	0.72	196.98	15	21.7	0.5	10.6	332	887	1909	15.1	21.7	349	1928	2	0.41	1.17	1	0.34	213.02	2418	0.5	10.6	271	3625	2	0.58	1.69	1	0.34	318.07	2126	4.4	30.8	-3.4	18.6	336	886	2	0.61	2.16	2	0.78	1.99	1	0.27	96.48
"OSPITALE"	"Neotoma"	3330	4323	"Ospitale"	10.78	44.155556	"Europe"	3176	4.4	26.7	-3.4	18.2	210	3625	2	0.68	2.64	0.83	1.91	2	0.68	2.48	0.83	1.81	2	0.42	303.74	0.75	200.73	13.1	20.7	6.3	12.3	814	2076	1817	13.2	20.6	444	3568	2	0.39	1.28	2	0.32	307.33	1636	6.3	12.2	349	3568	1	0.35	1.25	2	0.42	281.98	1352	5.9	25.9	-2.6	16.8	814	2066	2	0.62	2.32	2	0.65	2.37	1	0.17	246.58
"OVAGOLU"	"Neotoma"	3333	4326	"Ova Golu"	29.3	36.266667	"Europe"	1249	5.9	33.9	-2.4	23.1	51	2121	2	0.55	2.95	0.69	2.45	2	0.61	2.61	0.74	2.15	2	0.43	193.16	0.6	161.88	12.4	25.5	3	14.7	525	983	1073	12.7	25.4	130	2121	2	0.63	1.81	2	0.37	182.57	1022	3.2	14.7	143	2121	2	0.59	1.79	1	0.24	189.64	908	5.9	30.8	-2.4	19.6	525	982	2	0.59	2.39	2	0.62	2.23	2	0.37	93.46
"PADULE"	"Neotoma"	3337	4330	"Lago Padule"	10.214722	44.298611	"Europe"	3175	4.4	26.7	-3.4	18.2	210	3625	2	0.68	2.64	0.83	1.91	2	0.68	2.49	0.83	1.81	2	0.42	304.06	0.75	201.07	15	20.6	6.4	12.8	743	2013	1576	15.1	20.5	444	1928	2	0.39	1.03	2	0.37	237.87	1682	6.4	12.8	315	2319	1	0.41	1.29	2	0.45	262.17	1640	5.9	25.9	-2.6	16.8	744	1943	2	0.6	2.51	2	0.64	2.47	1	0.2	254.32
"PAIDRE"	"Neotoma"	3338	4332	"Paidre"	25.50484	58.27592	"Europe"	2763	4.4	25.8	-4.3	15.8	271	3625	2	0.63	2.21	0.8	1.64	2	0.72	2.09	0.84	1.61	1	0.35	315.17	0.74	200.37	14.2	20.4	-0.4	7.9	111	940	1718	14.3	20.4	449	2252	2	0.47	0.93	2	0.42	231.35	1773	-0.4	7.8	296	3625	2	0.55	1.59	2	0.46	322.04	2026	4.4	25.8	-4.3	15.1	271	938	2	0.66	1.81	2	0.81	1.8	1	0.27	98.84
"PAMERK"	"Neotoma"	3342	4338	"Pamerkiai Outcrop"	24.731111	54.3125	"Europe"	3154	4.4	26.7	-3.4	17.2	210	3625	2	0.59	2.48	0.78	1.8	2	0.73	2.21	0.84	1.7	1	0.29	313.97	0.72	197.09	13.6	18.2	0.2	8.1	412	910	1672	13.6	18.1	451	3568	1	0.27	0.92	2	0.4	266.24	1815	0.2	8.1	296	3625	2	0.57	1.48	1	0.37	339.26	2159	4.4	26.7	-3.4	17.2	416	910	2	0.66	1.94	2	0.81	1.89	1	0.27	98.28
"PELL79C2"	"Neotoma"	3344	4340	"Pelleautier"	6.183333	44.522222	"Europe"	2896	4.4	26.7	-3.4	18.2	210	3625	2	0.69	2.66	0.83	1.95	2	0.69	2.5	0.83	1.85	2	0.42	312.92	0.74	208.99	13.4	19.5	5.3	11	483	1690	1545	13.4	19.4	485	3568	2	0.31	1.15	2	0.33	302.6	1554	5.3	11	407	3568	2	0.4	1.07	1	0.3	338.28	2360	4.4	26.7	-3.4	18	484	1686	2	0.61	2.59	2	0.65	2.45	2	0.37	239.17
"PEYRE04"	"Neotoma"	3351	4348	"Peyrelevade"	2.046667	45.7075	"Europe"	2876	4.4	26.7	-3.4	18.2	210	3625	2	0.7	2.64	0.83	1.95	2	0.7	2.48	0.83	1.85	2	0.42	313.82	0.74	210.27	13.7	21.3	5.9	13	757	1402	1651	13.8	21.3	349	3059	2	0.37	1.31	2	0.31	285.9	1686	5.9	13	315	3568	2	0.48	1.29	1	0.3	317.96	1249	5.9	25.9	-2.6	16.8	757	1399	2	0.6	2.59	2	0.65	2.53	2	0.21	152.07
"PICKLET"	"Neotoma"	3353	4351	"Pickletillem"	-2.90744	56.41204	"Europe"	2789	4.4	26.2	-8.1	17.3	210	3625	2	0.71	2.41	0.85	1.72	2	0.74	2.27	0.86	1.67	2	0.39	323.09	0.72	216.99	7.4	17.8	-3.5	11.2	520	1408	1866	7.4	17.7	380	3625	2	0.52	1.84	1	0.26	354.32	2267	-3.4	11.2	380	3625	2	0.61	2.14	1	0.25	345.24	1984	4.4	26.1	-3.4	17	521	1407	2	0.59	2.33	2	0.67	2.26	2	0.36	185.81
"PLACECOM"	"Neotoma"	3354	4352	"Place du Commerce"	-1.556111	47.213889	"Europe"	2746	4.4	26.7	-3.4	18.2	210	3625	2	0.71	2.58	0.84	1.89	2	0.71	2.46	0.84	1.82	2	0.42	316.11	0.73	215.7	16	23.9	8.6	14.3	245	1193	1302	16.1	23.9	210	1740	2	0.55	1.44	1	0.26	208	836	8.6	14.3	210	1943	1	0.47	1.28	2	0.57	204.8	2188	4.4	26.7	-3.4	18.2	245	1191	2	0.72	2.58	2	0.73	2.46	2	0.49	169.74
"POPOVO"	"Neotoma"	3357	4355	"Popovo Ezero"	23.50822	41.70757	"Europe"	2482	4.4	33.9	-3.4	23.1	51	2121	2	0.57	2.96	0.71	2.42	2	0.62	2.55	0.75	2.07	2	0.48	241.45	0.74	171.51	9.8	20	1.4	9.7	623	1216	1698	9.8	20	381	1934	1	0.43	1.75	1	0.46	233.94	1634	1.4	9.7	271	1934	1	0.41	1.53	2	0.52	227.08	1457	5.9	30.8	-2.4	19.6	623	1212	2	0.53	2.56	2	0.62	2.32	1	0.36	129.47
"POV2_neotoma"	"Neotoma"	3360	4358	"Lake Beloslav"	27.675785	43.19015	"Europe"	2414	4.4	33.9	-3.4	23.1	51	2121	2	0.56	2.95	0.71	2.4	2	0.63	2.52	0.76	2.05	2	0.47	240.49	0.74	169.31	17.7	24.2	7.7	13.3	380	888	947	17.7	24.1	186	2121	2	0.54	1.31	1	0.26	177.42	901	7.7	13.3	143	1740	2	0.46	1.19	2	0.33	164.69	1624	4.4	30.8	-3.4	18.6	381	888	2	0.51	2.27	2	0.65	2	1	0.29	92.72
"PRUGNO2"	"Neotoma"	3361	4359	"Moulin de Prugnolas"	1.645833	45.849722	"Europe"	2863	4.4	26.7	-3.4	18.2	210	3625	2	0.7	2.64	0.83	1.96	2	0.7	2.48	0.83	1.85	2	0.42	314.34	0.74	211.14	12.3	19.1	3.8	11.5	635	1439	1591	12.4	19.1	485	3625	1	0.31	1.3	1	0.27	347.73	1706	3.8	11.4	403	3625	2	0.41	1.29	1	0.28	353.04	1712	5.9	25.9	-2.6	17.4	636	1437	2	0.58	2.51	2	0.63	2.42	2	0.28	184.09
"PTICHJE"	"Neotoma"	3362	4360	"Ptichje"	30.566667	66.35	"Europe"	1879	3.5	22.3	-9.2	9.2	270	3625	2	0.68	1.77	0.82	1.33	2	0.69	2.37	0.8	1.93	2	0.38	269.17	0.73	177.54	11.9	17	-2.6	3.5	356	752	899	11.9	16.9	348	3625	2	0.54	1.06	2	0.48	323.05	841	-2.6	3.4	380	2935	1	0.35	1.33	2	0.42	172.97	1486	3.5	22.3	-8.4	9.2	361	751	2	0.66	1.54	2	0.71	2.29	2	0.41	59.57
"PUNSO"	"Neotoma"	3364	4362	"Punso"	27.25948	57.68477	"Europe"	2782	4.4	26.2	-4.3	15.8	173	3625	2	0.64	2.15	0.82	1.53	2	0.75	2	0.85	1.53	1	0.33	314.4	0.74	195.43	14.5	20	0.9	7.7	452	909	1728	14.6	20	449	2252	2	0.43	0.94	2	0.43	227.85	1559	0.9	7.7	296	3625	2	0.54	1.36	2	0.48	325.08	2028	4.4	25.3	-3.4	14.7	452	909	2	0.64	1.7	2	0.82	1.71	1	0.23	89.42
"PUOLANKA"	"Neotoma"	3365	4363	"Vasikkasuo"	27.8601	64.67355	"Europe"	2002	3.5	23.2	-9.1	9.6	270	3625	2	0.67	1.75	0.82	1.31	2	0.7	2.3	0.82	1.82	2	0.39	273.05	0.71	187.6	13.3	17.3	-2	3.4	233	884	969	13.3	17.2	361	3568	2	0.4	0.83	2	0.51	247.88	712	-1.9	3.4	380	2935	2	0.36	1.16	2	0.34	181.42	1706	3.5	23.2	-9.1	9.6	270	884	2	0.65	1.6	2	0.72	2.3	2	0.36	85.59
"PUREK_N_neotoma"	"Neotoma"	3366	4364	"Puscizna Rekowianska"	19.811345	49.472685	"Europe"	3047	4.4	28.7	-3.4	19.1	210	3625	2	0.59	2.54	0.78	1.87	2	0.68	2.28	0.82	1.73	1	0.29	319.82	0.72	200.87	11.5	20	0.8	10.6	786	1218	2158	11.5	19.9	403	3625	1	0.35	1.44	1	0.33	323.54	2350	0.8	10.5	271	3625	2	0.58	1.62	1	0.34	322.32	917	5.9	26.5	-2.6	19.1	786	1215	2	0.65	2.54	2	0.71	2.43	1	0.16	105.92
"QUINTA02"	"Neotoma"	3368	4367	"Quintanar de la Sierra"	-3.016667	42.033333	"Europe"	2318	4.4	26.7	-3.4	18.2	210	2392	2	0.69	2.6	0.82	1.97	2	0.66	2.42	0.8	1.88	2	0.53	272.14	0.76	192.76	11.3	19.4	3.9	10	563	1347	1380	11.3	19.3	492	2392	1	0.31	1.49	2	0.41	276.3	1253	3.9	10	491	2392	2	0.37	1.1	1	0.41	285.11	1401	5.9	26.5	-2.3	18	565	1347	2	0.56	2.51	2	0.59	2.36	1	0.31	175.67
"RAIGASTV_neotoma"	"Neotoma"	3369	4369	"Raigastvere Lake"	26.64967	58.59222	"Europe"	2581	4.4	25.7	-4.3	15.8	271	3625	2	0.63	2.04	0.81	1.46	2	0.71	1.95	0.84	1.47	1	0.37	316.43	0.74	201.59	13.7	22.1	-2.1	10.3	246	851	1799	13.7	22.1	388	3568	2	0.54	1.02	2	0.46	248.8	2417	-2.1	10.3	271	3625	2	0.69	1.8	1	0.38	318.38	1819	4.4	25.7	-4.3	14.7	271	851	2	0.63	1.72	2	0.78	1.75	1	0.27	83.31
"RATTUV"	"Neotoma"	3372	4372	"Rattuvarri"	20.316667	69.35	"Europe"	1489	0.4	19.7	-16.3	9.3	210	3625	2	0.69	1.73	0.8	1.38	2	0.71	2.28	0.79	1.97	2	0.44	302.99	0.72	212.95	7.1	15.8	-3.3	2.4	360	1157	813	7.3	15.8	270	3625	2	0.46	1.56	1	0.49	373.26	572	-3.1	2.4	380	1870	1	0.33	1.19	1	0.48	150.32	1319	3.5	19.7	-8.4	9.1	369	1157	2	0.69	1.73	2	0.73	2.11	2	0.35	121.67
"RATZ81_neotoma"	"Neotoma"	3373	4373	"Saint Julien de Ratz"	5.655278	45.348333	"Europe"	2931	4.4	26.7	-3.4	18.2	210	3625	2	0.69	2.66	0.83	1.94	2	0.69	2.49	0.83	1.84	2	0.41	313.43	0.73	212.06	8.2	22.9	-2.6	15.5	43	1853	2305	8.2	22.9	260	3625	2	0.51	2.22	1	0.25	348.32	2758	-2.5	15.5	210	3625	2	0.66	2.39	2	0.4	318.87	2871	4.4	26.7	-3.4	18.2	210	1842	2	0.69	2.67	2	0.69	2.51	2	0.48	252.52
"RATZ83_neotoma"	"Neotoma"	3373	4374	"Saint Julien de Ratz"	5.655278	45.348333	"Europe"	2931	4.4	26.7	-3.4	18.2	210	3625	2	0.69	2.66	0.83	1.94	2	0.69	2.49	0.83	1.84	2	0.41	313.43	0.73	212.06	8.4	25.4	-2	18.4	497	1806	2608	8.5	25.3	210	3625	2	0.63	2.39	2	0.38	324.5	2868	-1.8	18.2	210	3625	2	0.68	2.41	2	0.42	316.26	2398	4.4	26.7	-3.4	18	498	1801	2	0.61	2.57	2	0.65	2.43	2	0.35	249.14
"RATZ85_neotoma"	"Neotoma"	3374	4375	"Grand Ratz le Pellet"	5.608333	45.425	"Europe"	2936	4.4	26.7	-3.4	18.2	210	3625	2	0.69	2.65	0.83	1.94	2	0.69	2.49	0.83	1.84	2	0.41	313.35	0.73	212.21	6.8	22.7	-2.7	15.1	357	1745	2375	6.8	22.6	260	3625	2	0.53	2.4	1	0.24	343.79	2726	-2.6	15.1	210	3625	2	0.66	2.38	2	0.39	320.14	2780	4.4	26.7	-3.4	18	358	1744	2	0.68	2.68	2	0.69	2.48	2	0.46	245.8
"REDMERE"	"Neotoma"	3375	4376	"Redmere"	0.438056	52.439722	"Europe"	2884	4.4	26.7	-3.4	18.2	210	3625	2	0.7	2.54	0.84	1.86	2	0.72	2.4	0.84	1.79	2	0.41	316.37	0.73	215.52	12.9	20.7	4.9	11.9	581	1319	1786	13	20.7	410	3568	2	0.4	1.28	2	0.33	311.99	1645	5	11.9	378	3625	2	0.46	1.19	1	0.28	352.18	1807	5.9	26.3	-2.6	17.9	583	1318	2	0.59	2.41	2	0.68	2.26	1	0.28	166.74
"REGET"	"Neotoma"	3376	4377	"Regetovka"	21.27779	49.42377	"Europe"	3088	4.4	30.8	-3.4	19.1	210	3625	2	0.58	2.68	0.76	2.01	2	0.68	2.33	0.81	1.8	1	0.27	319.75	0.71	199.64	13.9	19.9	4.7	10.8	765	1251	1930	13.9	19.9	403	3059	2	0.33	1.06	1	0.33	258.77	1678	4.7	10.7	271	3625	1	0.4	1.18	2	0.41	315.92	1055	5.9	26.9	-2.6	19.1	766	1247	2	0.65	2.61	2	0.69	2.53	1	0.19	117.38
"REZABIN_neotoma"	"Neotoma"	3377	4378	"Rezabinec"	14.08929	49.25165	"Europe"	3611	4.4	26.7	-3.4	18.2	210	3625	2	0.66	2.59	0.82	1.86	2	0.71	2.36	0.85	1.73	2	0.39	300.11	0.73	198.29	12.6	16.4	1.4	7.2	626	1231	926	12.7	16.4	493	3568	2	0.4	0.8	2	0.34	361.72	1237	1.4	7.2	487	3625	1	0.28	1.37	1	0.37	356.41	1901	5.9	25.9	-2.6	16.9	626	1230	2	0.57	2.46	2	0.7	2.22	1	0.28	142.95
"RIBNOE_neotoma"	"Neotoma"	3379	4380	"Ribnoe"	41.14052	43.63846	"Europe"	1581	8.6	33.9	-2.4	23.1	51	2121	2	0.48	2.89	0.69	2.23	2	0.72	2.66	0.83	2.06	1	0.4	164.46	0.65	124.77	14	17.2	3.1	6.5	677	812	298	14.1	17.1	451	1293	2	0.4	0.61	1	0.24	87.51	463	3.1	6.5	170	1467	2	0.33	0.71	1	0.56	95.15	302	10.2	30.6	-1.3	16.7	678	812	2	0.68	1.9	2	0.82	1.75	2	0.47	26.57
"RL240"	"Neotoma"	3381	4382	"Rotsee"	8.325556	47.075556	"Europe"	3239	4.4	26.7	-3.4	18.2	210	3625	2	0.68	2.64	0.83	1.9	2	0.7	2.47	0.84	1.81	2	0.39	307.69	0.73	205.63	14.1	21.4	5.9	11.2	653	1625	1866	14.1	21.4	349	2668	2	0.4	1.24	2	0.33	266.24	1519	5.9	11.2	389	3568	1	0.29	1.1	1	0.3	318.97	2057	5.9	25.9	-2.6	17.4	653	1620	2	0.58	2.51	2	0.65	2.37	2	0.34	215.47
"RL250"	"Neotoma"	3381	4383	"Rotsee"	8.325556	47.075556	"Europe"	3239	4.4	26.7	-3.4	18.2	210	3625	2	0.68	2.64	0.83	1.9	2	0.7	2.47	0.84	1.81	2	0.39	307.69	0.73	205.63	9.1	21.9	-1.6	12.4	419	1578	2397	9.2	21.8	315	3625	2	0.49	1.98	1	0.24	341.92	2433	-1.6	12.4	349	3625	2	0.54	2.02	1	0.25	341.91	2789	4.4	26.7	-3.4	18	419	1575	2	0.62	2.64	2	0.68	2.43	2	0.38	227.36
"ROAG"	"Neotoma"	3382	4385	"Little Loch Roag"	-6.883333	58.133333	"Europe"	2357	4	25.4	-11.3	15.7	244	3625	2	0.62	2.33	0.79	1.71	2	0.68	2.27	0.82	1.68	1	0.25	354.66	0.68	230.69	8.5	15.1	0.4	11.4	1121	1519	683	8.5	15	380	3625	2	0.34	1.36	1	0.24	432.36	1935	0.4	11.4	380	3625	2	0.58	1.75	1	0.24	355.91	454	7	21.4	-2.4	14.9	1123	1519	2	0.44	2.13	2	0.54	2.16	1	0.22	105.31
"ROQUETAS"	"Neotoma"	3383	4386	"Roquetas de Mar"	-2.588889	36.794444	"Europe"	2047	4.4	26.7	-3.4	18.2	210	1934	2	0.69	2.69	0.82	2.05	2	0.66	2.53	0.8	1.96	2	0.55	254.24	0.75	188.26	20.8	31.2	11.3	21.6	34	527	600	20.9	26.7	210	1641	2	0.53	1.05	2	0.44	127.93	668	11.3	18.2	210	1641	1	0.33	1.32	2	0.51	161.65	489	18.2	26.7	8.4	18.2	210	526	2	0.64	1.23	2	0.54	1.36	2	0.4	51.9
"ROSLE_N"	"Neotoma"	3384	4387	"Rosle Nowe"	18.90654	52.12343	"Europe"	3206	4.4	26.7	-3.4	17.6	210	3625	2	0.6	2.48	0.79	1.81	2	0.71	2.26	0.83	1.71	1	0.29	319.88	0.73	198.51	13.2	16.8	-0.3	9.4	483	1197	1118	13.3	16.8	430	3568	2	0.3	0.79	2	0.4	331.06	2298	-0.3	9.4	296	3625	2	0.61	1.63	1	0.36	321.35	2506	4.4	26.7	-3.4	17.6	483	1194	2	0.59	2.38	2	0.73	2.16	1	0.35	148.61
"ROZ14A_N_neotoma"	"Neotoma"	3385	4388	"Roztoki"	21.54422	49.74255	"Europe"	3096	4.4	30.8	-3.4	19.1	210	3625	2	0.58	2.68	0.77	2	2	0.68	2.33	0.81	1.79	1	0.27	319.64	0.71	200.17	9.4	21.5	-0.5	10	595	994	2510	9.5	21.5	349	3625	2	0.49	1.85	1	0.32	315.34	2423	-0.5	10	271	3625	2	0.6	1.72	1	0.35	315.25	1589	5.9	29.4	-2.6	19.1	596	994	2	0.54	2.16	2	0.72	2.01	2	0.29	91.56
"ROZ1B_N_neotoma"	"Neotoma"	3385	4389	"Roztoki"	21.54422	49.74255	"Europe"	3096	4.4	30.8	-3.4	19.1	210	3625	2	0.58	2.68	0.77	2	2	0.68	2.33	0.81	1.79	1	0.27	319.64	0.71	200.17	11.7	21.3	-1	10.7	576	979	2236	11.8	21.2	380	3625	2	0.39	1.46	1	0.32	317.13	2512	-1	10.7	271	3625	2	0.6	1.78	1	0.34	316.36	1670	5.9	29.5	-2.6	19.1	576	977	2	0.52	2.14	2	0.73	1.95	2	0.3	88.35
"RUGOZERO"	"Neotoma"	3387	4391	"Rugozero"	32.633333	64.083333	"Europe"	2127	3.5	25	-9.2	10.4	270	3625	2	0.7	1.81	0.83	1.36	2	0.68	2.35	0.8	1.88	2	0.38	260.89	0.73	170.2	11.2	17.9	-3.3	3.3	387	741	1465	11.3	17.9	316	3625	2	0.62	1.21	2	0.42	279.84	1014	-3.3	3.3	346	2935	2	0.4	1.27	2	0.45	161.11	1681	3.5	23.5	-8.4	10.4	387	740	2	0.69	1.56	2	0.71	2.19	2	0.41	61.29
"RUKATUN"	"Neotoma"	3388	4392	"Rukatunturi"	29.15	66.166667	"Europe"	1844	3.5	22.3	-11.3	9.2	244	3625	2	0.68	1.78	0.82	1.35	2	0.69	2.37	0.8	1.92	2	0.39	273.65	0.73	182.36	10.1	13.9	-10.2	2.5	-172	1184	461	10.1	13.9	316	3625	1	0.24	0.78	2	0.57	363.76	903	-9.2	2.5	270	1870	1	0.47	2.2	2	0.36	154.91	1734	3.5	22.3	-11.3	9.2	244	1183	2	0.68	1.8	2	0.7	2.36	1	0.23	130.73
"RYONANSU"	"Neotoma"	3389	4393	"Ryonansuo"	24.17711	60.438365	"Europe"	2396	4.4	25	-4.8	13	271	3625	2	0.66	1.94	0.83	1.38	2	0.73	1.89	0.85	1.42	1	0.36	318.2	0.75	198.46	13.2	18.7	1.3	5.5	433	997	1564	13.2	18.6	425	3568	2	0.5	0.93	2	0.48	276.54	759	1.3	5.5	459	3625	2	0.35	1.03	1	0.46	263.73	1809	4.4	23.5	-4.3	13	435	996	2	0.65	1.73	2	0.79	1.69	1	0.25	105.16
"S3PLESHV_neotoma"	"Neotoma"	3392	4396	"Plesheevo Lake"	38.77603	56.76882	"Europe"	2663	6.8	26.7	-8.4	14.4	130	3625	2	0.66	2.01	0.84	1.4	2	0.73	2.27	0.85	1.7	1	0.28	265.42	0.73	164.27	12.8	21.7	-4.7	14.5	81	1106	2023	12.8	21.7	261	3568	2	0.54	1.25	1	0.37	221.6	2542	-4.5	14.4	130	3625	2	0.74	1.97	1	0.29	268.81	2524	6.8	26.7	-8.4	14.4	130	1097	2	0.65	2.01	2	0.75	2.26	1	0.34	122.12
"S84"	"Neotoma"	3393	4397	"Lake Skrzetuszewskie"	17.35631	52.54984	"Europe"	3209	4.4	26.7	-3.4	17.6	210	3625	2	0.6	2.48	0.78	1.82	2	0.71	2.27	0.83	1.72	1	0.29	318.97	0.72	198.47	14.7	22.9	2.1	13.2	625	959	2184	14.7	22.8	260	2252	2	0.5	1.43	2	0.38	232.79	2448	2.1	13.2	260	3625	2	0.61	1.61	1	0.3	331.59	1267	6	25.9	-2.6	16.9	626	958	2	0.59	1.9	2	0.77	1.75	2	0.3	76.56
"S87"	"Neotoma"	3393	4398	"Lake Skrzetuszewskie"	17.35631	52.54984	"Europe"	3209	4.4	26.7	-3.4	17.6	210	3625	2	0.6	2.48	0.78	1.82	2	0.71	2.27	0.83	1.72	1	0.29	318.97	0.72	198.47	12.8	22.9	-0.9	13.7	545	1027	2496	12.8	22.8	260	3568	2	0.5	1.65	1	0.29	304.31	2865	-0.9	13.6	260	3625	2	0.65	1.96	1	0.3	322.09	1987	4.4	26.7	-3.4	17.6	545	1025	2	0.58	2.19	2	0.74	2.02	1	0.28	115.28
"SAKSUNAR_neotoma"	"Neotoma"	3396	4401	"Saksunarvatn"	-7.15784	62.24107	"Europe"	1490	2	20.8	-11.3	13	244	3625	2	0.64	1.83	0.85	1.2	2	0.75	1.98	0.89	1.32	2	0.37	363.89	0.73	240.11	1.1	12.6	-6.6	7.3	332	1867	362	2	12.6	244	3625	1	0.62	1.32	2	0.45	364.13	929	-6.2	7.3	380	3625	2	0.67	1.8	2	0.51	364.95	1424	2	20.8	-8.1	13	380	1843	2	0.64	1.85	2	0.76	1.98	2	0.5	248.65
"SALDROPO"	"Neotoma"	3397	4402	"Saldropo"	-2.716667	43.05	"Europe"	2403	4.4	26.7	-3.4	18.2	210	2895	2	0.69	2.58	0.82	1.96	2	0.66	2.42	0.8	1.86	2	0.51	280.45	0.74	203.09	8.7	21.3	1.2	13.4	459	1532	1746	8.9	21.2	383	2895	1	0.4	2.06	1	0.3	304.99	1846	1.2	13.4	260	2895	2	0.5	1.93	1	0.32	310.2	1860	4.4	26.7	-3.4	18	460	1530	2	0.59	2.49	2	0.6	2.37	2	0.38	225.99
"SAMBOTOT_neotoma"	"Neotoma"	3398	4403	"Lake Sambosjon"	12.41426	57.16313	"Europe"	2942	4.4	25.8	-3.4	15.9	210	3625	2	0.54	2.43	0.77	1.74	2	0.67	2.27	0.83	1.65	1	0.29	326.2	0.73	201.16	11.8	21.9	0.1	11.2	622	884	2332	11.8	21.8	315	3625	2	0.46	1.46	2	0.35	317.44	2413	0.1	11.2	380	3625	2	0.6	1.75	1	0.31	328.64	1058	6	24.7	-2.7	15.9	622	880	2	0.54	1.74	2	0.75	1.64	1	0.23	65.81
"SANRAFA"	"Neotoma"	3399	4404	"San Rafael"	-2.601389	36.773611	"Europe"	2047	4.4	26.7	-3.4	18.2	210	1934	2	0.69	2.69	0.82	2.05	2	0.66	2.53	0.8	1.96	2	0.55	254.24	0.75	188.26	16.4	34.6	7.5	24.5	-321	1105	1277	16.5	26.7	210	1740	2	0.74	1.74	2	0.55	185.87	1342	7.6	18.2	210	1774	2	0.65	1.71	2	0.6	192.94	1519	4.4	26.7	-3.4	18.2	210	1103	2	0.68	2.54	2	0.65	2.41	2	0.57	158.07
"SARKIKAN_neotoma"	"Neotoma"	3400	4405	"Sarkikangas"	29.18661	65.91702	"Europe"	1847	3.5	22.3	-9.2	9.2	270	3625	2	0.68	1.78	0.82	1.35	2	0.69	2.37	0.8	1.92	2	0.39	273.22	0.73	182.11	12.3	15.7	-7.2	3.3	-45	756	457	12.4	15.6	348	3625	2	0.46	0.78	2	0.64	350.86	935	-7.2	3.3	348	2935	1	0.46	1.95	2	0.33	183.9	1473	3.5	22.3	-9.2	9.2	270	756	2	0.65	1.61	2	0.7	2.43	2	0.4	65.09
"SERNA"	"Neotoma"	3402	4409	"Serni"	40.480556	43.666667	"Europe"	1633	8.6	33.9	-2.4	23.1	51	2121	2	0.49	2.83	0.68	2.23	2	0.72	2.6	0.83	2.02	2	0.46	154.58	0.65	124.45	14.1	17.6	2.7	6	607	961	444	14.3	17.5	438	1293	2	0.31	0.63	1	0.24	81.15	424	2.7	6	170	1511	2	0.29	0.67	1	0.59	102.15	754	8.6	30.8	-2.4	19.6	607	958	2	0.56	2.12	2	0.74	2.1	1	0.34	63.72
"SERENT1"	"Neotoma"	3403	4410	"Serent"	-2.468056	47.809444	"Europe"	2698	4.4	26.7	-3.4	18.2	210	3625	2	0.71	2.57	0.84	1.89	2	0.71	2.46	0.84	1.82	2	0.42	317.91	0.73	217.68	12.3	19.6	3.5	11.7	705	1370	1590	12.3	19.5	483	3625	1	0.32	1.39	1	0.27	347.87	1655	3.6	11.7	389	3625	2	0.43	1.33	1	0.29	354.57	1282	5.9	24.6	-2.6	17.4	705	1369	2	0.6	2.49	2	0.66	2.43	1	0.18	155.86
"SERENT2"	"Neotoma"	3403	4411	"Sérent"	-2.468056	47.809444	"Europe"	2698	4.4	26.7	-3.4	18.2	210	3625	2	0.71	2.57	0.84	1.89	2	0.71	2.46	0.84	1.82	2	0.42	317.91	0.73	217.68	13.2	21.3	6	13.5	644	1389	1624	13.2	21.3	349	3568	2	0.41	1.34	1	0.25	332.17	1590	6	13.5	260	3568	2	0.5	1.33	1	0.31	317.32	1526	5.9	25.5	-2.6	17.4	645	1388	2	0.58	2.48	2	0.63	2.44	2	0.26	169.15
"SHABLA_neotoma"	"Neotoma"	3405	4413	"Lake Shabla-Ezeretz"	28.56721	43.572235	"Europe"	2394	4.4	33.9	-3.4	23.1	51	2121	2	0.59	2.85	0.74	2.28	2	0.65	2.47	0.78	1.98	2	0.49	237.99	0.75	165.7	19.5	23.5	8.2	12.5	427	702	515	19.5	23.4	189	2121	1	0.18	0.99	2	0.38	181.07	646	8.2	12.4	143	1582	2	0.51	0.87	2	0.37	147.34	1147	4.4	30.8	-3.4	18.6	427	702	2	0.54	2.04	2	0.71	1.72	2	0.38	53.92
